id;fk;creator;created;last_editor;last_edited;area;perimeter;length;latitude;longitude;geom;fclass_osm;label;source;type;remarks
10;0;7;2017-03-23 12:36:44.559086+01;;;0;0;0;6.2484436;10.5058304;0101000020E61000002CA5C233FC0225401E9AC3FF67FE1840;village;Oku;OSM;Settlement;
11;0;7;2017-03-23 12:36:44.559086+01;;;0;0;0;7.033333;10.583333;0101000020E6100000EA5A7B9FAA2A2540A182C30B22221C40;village;Jato;OSM;Settlement;
12;0;7;2017-03-23 12:36:44.559086+01;;;0;0;0;6.533333;11.1;0101000020E61000003333333333332640A182C30B22221A40;village;Warkaka;OSM;Settlement;
13;0;7;2017-03-23 12:36:44.559086+01;;;0;0;0;6.7055;9.7564;0101000020E610000088635DDC46832340DF4F8D976ED21A40;village;Matazu;OSM;Settlement;
14;0;7;2017-03-23 12:36:44.559086+01;;;0;0;0;6.966667;10.783333;0101000020E610000051C1E105119125405F7D3CF4DDDD1B40;village;Abong Yeri;OSM;Settlement;
15;0;7;2017-03-23 12:36:44.559086+01;;;0;0;0;7.033333;10.583333;0101000020E6100000EA5A7B9FAA2A2540A182C30B22221C40;village;Gidan Jato;OSM;Settlement;
16;0;7;2017-03-23 12:36:44.559086+01;;;0;0;0;7.066667;10.583333;0101000020E6100000EA5A7B9FAA2A2540C5E3A25A44441C40;village;Gidan Boro;OSM;Settlement;
17;0;7;2017-03-23 12:36:44.559086+01;;;0;0;0;7.066667;10.583333;0101000020E6100000EA5A7B9FAA2A2540C5E3A25A44441C40;village;Boro;OSM;Settlement;
18;0;7;2017-03-23 12:36:44.559086+01;;;0;0;0;7.133333;10.6;0101000020E6100000333333333333254008E9297288881C40;village;Audu;OSM;Settlement;
19;0;7;2017-03-23 12:36:44.559086+01;;;0;0;0;5.796164;10.162518;0101000020E6100000CD052E8F355324409B02999D452F1740;village;Santa;OSM;Settlement;
20;0;7;2017-03-23 12:36:44.559086+01;;;0;0;0;5.837607;9.889249;0101000020E61000005C001AA54BC723404A9A3FA6B5591740;village;Batibo;OSM;Settlement;
21;0;7;2017-03-23 12:36:44.559086+01;;;0;0;0;6.424937;10.793949;0101000020E61000004162BB7B80962540007157AF22B31940;village;Ndu;OSM;Settlement;
22;0;7;2017-03-23 12:36:44.559086+01;;;0;0;0;5.9789635;10.4024077;0101000020E61000003151CE6108CE244029E9616875EA1740;locality;Bamali Junction;OSM;Settlement;
23;0;7;2017-03-23 12:36:44.559086+01;;;0;0;0;6.585618;10.54934;0101000020E6100000F0C4AC1743192540B4CBB73EAC571A40;village;Misaje;OSM;Settlement;
24;0;7;2017-03-23 12:36:44.559086+01;;;0;0;0;5.9657584;10.169553;0101000020E61000009CE09BA6CF56244062591FC5EFDC1740;locality;Mile 2 Junction (Bamenda);OSM;Settlement;
25;0;7;2017-03-23 12:36:44.559086+01;;;0;0;0;5.9837514;10.3935379;0101000020E61000001979B4CC7DC92440AD93E9865CEF1740;village;Sub Palace Akeh;OSM;Settlement;
26;0;7;2017-03-23 12:36:44.559086+01;;;0;0;0;5.9523812;10.4210839;0101000020E610000088BE164F98D724400A4D6D043DCF1740;locality;3 Corners Bamali;OSM;Settlement;
27;0;7;2017-03-23 12:36:44.559086+01;;;0;0;0;6.175615;10.34668;0101000020E6100000C45A7C0A80B1244087BF266BD4B31840;village;Belo;OSM;Settlement;
28;0;7;2017-03-23 12:36:44.559086+01;;;0;0;0;6.0043318;10.2573289;0101000020E61000009DA1139DC0832440CD542D8E6F041840;village;Bambili;OSM;Settlement;
29;0;7;2017-03-23 12:36:44.559086+01;;;0;0;0;5.892377;10.35867;0101000020E6100000D61C2098A3B7244074CFBA46CB911740;village;Balikumbat;OSM;Settlement;
30;0;7;2017-03-23 12:36:44.559086+01;;;0;0;0;6.5150473;9.7082969;0101000020E610000064B72AE4A56A23408992358F680F1A40;village;Makumo;OSM;Settlement;
31;0;7;2017-03-23 12:36:44.559086+01;;;0;0;0;6.5498006;10.862855;0101000020E610000052616C21C8B92540E348B1EDFE321A40;village;Mbokop;OSM;Settlement;
32;0;7;2017-03-23 12:36:44.559086+01;;;0;0;0;6.4700238;10.8571517;0101000020E6100000EE6B6E96DCB62540D85D45EB4DE11940;village;Ntisaw;OSM;Settlement;
33;0;7;2017-03-23 12:36:44.559086+01;;;0;0;0;6.1510477;9.7385481;0101000020E6100000BE0B00FA227A2340498B8E3FAC9A1840;village;Alunfa;OSM;Settlement;
34;0;7;2017-03-23 12:36:44.559086+01;;;0;0;0;6.1866459;9.768815;0101000020E61000003659A31EA2892340DEBA511A20BF1840;village;Amassi;OSM;Settlement;
35;0;7;2017-03-23 12:36:44.559086+01;;;0;0;0;6.1687457;9.7502634;0101000020E610000083C53C8622802340CD5C3BACCBAC1840;village;Ayi;OSM;Settlement;
36;0;7;2017-03-23 12:36:44.559086+01;;;0;0;0;6.2680963;9.7578492;0101000020E61000007B9972CF04842340E4B622D687121940;village;Ossatu;OSM;Settlement;
37;0;7;2017-03-23 12:36:44.559086+01;;;0;0;0;6.2063036;10.6698544;0101000020E6100000D529EA27F756254032303C4041D31840;village;Tobin;OSM;Settlement;
38;0;7;2017-03-23 12:36:44.559086+01;;;0;0;0;6.126437;9.865697;0101000020E61000009A7D1EA33CBB2340750470B378811840;village;Oshie;OSM;Settlement;
39;0;7;2017-03-23 12:36:44.559086+01;;;0;0;0;6.9487942;10.5608458;0101000020E6100000AA32422E271F2540B689EEB490CB1B40;village;Abbafum;OSM;Settlement;
40;0;7;2017-03-23 12:36:44.559086+01;;;0;0;0;5.937851;9.8354974;0101000020E61000003BC9B150C6AB2340661536035CC01740;village;Abebung;OSM;Settlement;
41;0;7;2017-03-23 12:36:44.559086+01;;;0;0;0;5.7582297;9.8877494;0101000020E61000005616E01687C623406F6CD15D6D081740;village;Abeshom;OSM;Settlement;
42;0;7;2017-03-23 12:36:44.559086+01;;;0;0;0;6.7749461;10.6221749;0101000020E6100000BDC85FB58D3E2540A7A66E788B191B40;village;Abonkwa;OSM;Settlement;
43;0;7;2017-03-23 12:36:44.559086+01;;;0;0;0;6.8973498;10.747426;0101000020E6100000365CE49EAE7E2540DF49B0DDE2961B40;village;Abonse;OSM;Settlement;
44;0;7;2017-03-23 12:36:44.559086+01;;;0;0;0;6.9768773;10.7385243;0101000020E6100000439A67DB1F7A2540B2D1DE8552E81B40;village;Abonshie;OSM;Settlement;
45;0;7;2017-03-23 12:36:44.559086+01;;;0;0;0;6.3002422;10.364432;0101000020E6100000543BC3D496BA24403084F7B072331940;village;Abu;OSM;Settlement;
46;0;7;2017-03-23 12:36:44.559086+01;;;0;0;0;6.5774169;10.2391367;0101000020E6100000F68B2320707A24407DA13660464F1A40;village;Abar;OSM;Settlement;
47;0;7;2017-03-23 12:36:44.559086+01;;;0;0;0;5.9901056;9.9445675;0101000020E61000009DBAF2599EE3234088580E3EDEF51740;village;Acha Tugi;OSM;Settlement;
48;0;7;2017-03-23 12:36:44.559086+01;;;0;0;0;6.3952138;10.1798521;0101000020E6100000DD3B0F93155C244027B627EDB2941940;village;Achaf;OSM;Settlement;
49;0;7;2017-03-23 12:36:44.559086+01;;;0;0;0;5.9991176;9.7928552;0101000020E610000055EDE41DF19523409A6E23AF18FF1740;village;Achang;OSM;Settlement;
50;0;7;2017-03-23 12:36:44.559086+01;;;0;0;0;6.7293439;10.8849664;0101000020E6100000221EE4501AC52540FC259820D9EA1A40;village;Adere;OSM;Settlement;
51;0;7;2017-03-23 12:36:44.559086+01;;;0;0;0;6.753141;10.7352011;0101000020E610000069F750476C782540611BF16437031B40;village;Adu;OSM;Settlement;
52;0;7;2017-03-23 12:36:44.559086+01;;;0;0;0;6.3351421;10.3590825;0101000020E6100000C02154A9D9B72440110D9C7D2F571940;village;Aduk;OSM;Settlement;
53;0;7;2017-03-23 12:36:44.559086+01;;;0;0;0;6.3167206;10.4255939;0101000020E610000013C19371E7D92440C4E0AB6752441940;village;Ajung;OSM;Settlement;
54;0;7;2017-03-23 12:36:44.559086+01;;;0;0;0;6.715763;10.5867978;0101000020E6100000C0BAE0C2702C254055BFD2F9F0DC1A40;village;Akonka;OSM;Settlement;
55;0;7;2017-03-23 12:36:44.559086+01;;;0;0;0;6.0662336;10.1995651;0101000020E61000008FD893652D662440DC95A7BDD2431840;village;Akossia;OSM;Settlement;
56;0;7;2017-03-23 12:36:44.559086+01;;;0;0;0;5.8046816;9.8472869;0101000020E610000090A8AB96CFB1234096C50E74FE371740;village;Akulabei;OSM;Settlement;
57;0;7;2017-03-23 12:36:44.559086+01;;;0;0;0;5.887687;10.156404;0101000020E61000005BED612F14502440605628D2FD8C1740;village;Akum;OSM;Settlement;
58;0;7;2017-03-23 12:36:44.559086+01;;;0;0;0;6.7067898;10.7915863;0101000020E61000005DECACCC4A952540E59590B4C0D31A40;village;Akwaja;OSM;Settlement;
59;0;7;2017-03-23 12:36:44.559086+01;;;0;0;0;6.8637601;10.6932923;0101000020E610000022235635F7622540D85B14877D741B40;village;Akwapiang;OSM;Settlement;
60;0;7;2017-03-23 12:36:44.559086+01;;;0;0;0;6.8857081;10.795821;0101000020E6100000A6F0A0D9759725408E356D10F78A1B40;village;Akwomse;OSM;Settlement;
61;0;7;2017-03-23 12:36:44.559086+01;;;0;0;0;5.8786674;10.1483789;0101000020E61000003AD5B551F84B2440D33E0C63C1831740;village;Alatening;OSM;Settlement;
62;0;7;2017-03-23 12:36:44.559086+01;;;0;0;0;5.7962676;9.8865826;0101000020E6100000C2679027EEC52340287513C6602F1740;village;Ambo;OSM;Settlement;
63;0;7;2017-03-23 12:36:44.559086+01;;;0;0;0;6.6737369;10.6572697;0101000020E6100000B04D74A785502540066FFE15E8B11A40;village;Ande;OSM;Settlement;
64;0;7;2017-03-23 12:36:44.559086+01;;;0;0;0;5.97822;9.833983;0101000020E610000006D7DCD1FFAA2340282CF180B2E91740;village;Andek;OSM;Settlement;
65;0;7;2017-03-23 12:36:44.559086+01;;;0;0;0;5.9906918;9.8297292;0101000020E61000008E120544D2A8234057A945E977F61740;village;Angai;OSM;Settlement;
66;0;7;2017-03-23 12:36:44.559086+01;;;0;0;0;5.7977933;9.8116925;0101000020E610000024D1CB28969F234026DF11BAF0301740;village;Angie;OSM;Settlement;
67;0;7;2017-03-23 12:36:44.559086+01;;;0;0;0;5.9009619;9.9020009;0101000020E6100000D6ECDC0FD3CD2340A2C49DC1959A1740;village;Anong;OSM;Settlement;
68;0;7;2017-03-23 12:36:44.559086+01;;;0;0;0;5.9276057;9.8327917;0101000020E6100000AFC277AC63AA23402F55C444DEB51740;village;Angong;OSM;Settlement;
69;0;7;2017-03-23 12:36:44.559086+01;;;0;0;0;5.9090312;9.7826506;0101000020E6100000BA635694B7902340AF2C2C13D9A21740;village;Angwi;OSM;Settlement;
70;0;7;2017-03-23 12:36:44.559086+01;;;0;0;0;6.7231869;10.7807013;0101000020E6100000AEE3AE14B88F25401E95511B8BE41A40;village;Anmba;OSM;Settlement;
71;0;7;2017-03-23 12:36:44.559086+01;;;0;0;0;5.7770432;9.9643547;0101000020E6100000DF7C34E6BFED234016516E36B11B1740;village;Ashong;OSM;Settlement;
72;0;7;2017-03-23 12:36:44.559086+01;;;0;0;0;6.7362251;10.7948647;0101000020E61000005D7D8681F896254032FA1BFEE4F11A40;village;Assa;OSM;Settlement;
73;0;7;2017-03-23 12:36:44.559086+01;;;0;0;0;6.454984;10.186546;0101000020E6100000346612F5825F244024D06053E7D11940;village;Awi;OSM;Settlement;
74;0;7;2017-03-23 12:36:44.559086+01;;;0;0;0;5.8401153;10.2528331;0101000020E61000004EB10F5773812440177A692F475C1740;village;Awing;OSM;Settlement;
75;0;7;2017-03-23 12:36:44.559086+01;;;0;0;0;5.8207277;9.9084252;0101000020E61000007AB9991B1DD1234069AF99D76C481740;village;Awun;OSM;Settlement;
76;0;7;2017-03-23 12:36:44.559086+01;;;0;0;0;5.9047338;9.7967818;0101000020E61000009518BAC8F3972340DD578A89729E1740;village;Azem;OSM;Settlement;
77;0;7;2017-03-23 12:36:44.559086+01;;;0;0;0;6.0584797;10.4907891;0101000020E610000070777BB548FB244069EB3B1AE23B1840;village;Baba I;OSM;Settlement;
78;0;7;2017-03-23 12:36:44.559086+01;;;0;0;0;5.8656129;10.1080187;0101000020E61000007FB61F3A4E3724409EFB613A63761740;village;Baba;OSM;Settlement;
79;0;7;2017-03-23 12:36:44.559086+01;;;0;0;0;6.1192783;10.2600228;0101000020E6100000BF6D5CB5218524406B7D3617247A1840;village;Babanki (big);OSM;Settlement;
80;0;7;2017-03-23 12:36:44.559086+01;;;0;0;0;6.7915571;10.5685614;0101000020E61000003489D57A1A2325409AAAC5F18D2A1B40;village;Babo-Jatto;OSM;Settlement;
81;0;7;2017-03-23 12:36:44.559086+01;;;0;0;0;6.067073;10.445864;0101000020E610000070ED444948E4244047C7D5C8AE441840;village;Babungo;OSM;Settlement;
82;0;7;2017-03-23 12:36:44.559086+01;;;0;0;0;5.903026;10.383653;0101000020E61000004B06802A6EC4244033C005D9B29C1740;village;Bafanji;OSM;Settlement;
83;0;7;2017-03-23 12:36:44.559086+01;;;0;0;0;5.9736063;10.1831113;0101000020E61000005C0EAAC3C05D2440E0B7C60CF9E41740;village;Bafreng (Bamenda);OSM;Settlement;
84;0;7;2017-03-23 12:36:44.559086+01;;;0;0;0;6.0581954;10.2473019;0101000020E6100000327AC95A9E7E24404D1C2F93973B1840;village;Bafunge;OSM;Settlement;
85;0;7;2017-03-23 12:36:44.559086+01;;;0;0;0;6.6509332;11.0428368;0101000020E61000006E217EB4EE152640C385973B8E9A1A40;village;Bagam;OSM;Settlement;
86;0;7;2017-03-23 12:36:44.559086+01;;;0;0;0;5.8917486;9.7764019;0101000020E6100000C21AC28C848D2340E003858B26911740;village;Bajem;OSM;Settlement;
87;0;7;2017-03-23 12:36:44.559086+01;;;0;0;0;6.865524;10.1310128;0101000020E6100000FCB6161C14432440C79C67EC4B761B40;village;Baji;OSM;Settlement;
88;0;7;2017-03-23 12:36:44.559086+01;;;0;0;0;5.8725553;10.0417463;0101000020E6100000407562C55F1524404ECEF5227F7D1740;village;Bako;OSM;Settlement;
89;0;7;2017-03-23 12:36:44.559086+01;;;0;0;0;6.0165864;10.1974985;0101000020E6100000A304FD851E652440C63B7606FC101840;village;Balewa;OSM;Settlement;
90;0;7;2017-03-23 12:36:44.559086+01;;;0;0;0;5.7484595;10.2661109;0101000020E6100000DF3719B03F882440A585CB2A6CFE1640;village;Bali Gha;OSM;Settlement;
91;0;7;2017-03-23 12:36:44.559086+01;;;0;0;0;5.9477624;10.4447733;0101000020E61000009B447353B9E324408E83013A82CA1740;village;Bamali;OSM;Settlement;
92;0;7;2017-03-23 12:36:44.559086+01;;;0;0;0;5.89463;10.536789;0101000020E610000081B4FF01D6122540F91400E319941740;village;Bambalang;OSM;Settlement;
93;0;7;2017-03-23 12:36:44.559086+01;;;0;0;0;5.8879189;9.7925472;0101000020E61000009F1221BFC89523404D00B49C3A8D1740;village;Bamben;OSM;Settlement;
94;0;7;2017-03-23 12:36:44.559086+01;;;0;0;0;6.014621;10.2315906;0101000020E61000003E1F0A0B93762440DA56B3CEF80E1840;village;Bambui;OSM;Settlement;
95;0;7;2017-03-23 12:36:44.559086+01;;;0;0;0;5.9721954;10.3630275;0101000020E6100000E71890BDDEB924405C49E13087E31740;village;Bamessing;OSM;Settlement;
96;0;7;2017-03-23 12:36:44.559086+01;;;0;0;0;5.8519782;10.3356349;0101000020E6100000DFCA6D56D8AB2440AA9E27F96C681740;village;Bamukumbit;OSM;Settlement;
97;0;7;2017-03-23 12:36:44.559086+01;;;0;0;0;5.972662;10.462996;0101000020E61000008E5BCCCF0DED2440703FE08101E41740;village;Bamunka;OSM;Settlement;
98;0;7;2017-03-23 12:36:44.559086+01;;;0;0;0;5.9664348;9.8449086;0101000020E6100000E2372ADC97B023407EDD8E15A1DD1740;village;Banatu;OSM;Settlement;
99;0;7;2017-03-23 12:36:44.559086+01;;;0;0;0;6.5114088;11.1558697;0101000020E6100000EADF3F27CE4F2640E28B9BBFAE0B1A40;village;Bang;OSM;Settlement;
100;0;7;2017-03-23 12:36:44.559086+01;;;0;0;0;5.9465253;10.620825;0101000020E610000012143FC6DC3D2540AB58A1ED3DC91740;village;Bangola;OSM;Settlement;
101;0;7;2017-03-23 12:36:44.559086+01;;;0;0;0;6.307763;10.0185663;0101000020E61000008E9DA68581092440E6AC4F39263B1940;village;Bangwi;OSM;Settlement;
102;0;7;2017-03-23 12:36:44.559086+01;;;0;0;0;6.6379022;10.275166;0101000020E610000039F1D58EE28C2440912FFC3B368D1A40;village;Banja;OSM;Settlement;
103;0;7;2017-03-23 12:36:44.559086+01;;;0;0;0;6.3453161;10.5992165;0101000020E61000007A724D81CC3225400A21318B9A611940;village;Banten;OSM;Settlement;
104;0;7;2017-03-23 12:36:44.559086+01;;;0;0;0;5.9671303;9.6903792;0101000020E610000063ADEB6179612340F7E1C56757DE1740;village;Barambichang;OSM;Settlement;
105;0;7;2017-03-23 12:36:44.559086+01;;;0;0;0;5.8007639;9.9521648;0101000020E610000005CE082582E723400845A973FB331740;village;Baranja;OSM;Settlement;
106;0;7;2017-03-23 12:36:44.559086+01;;;0;0;0;6.4961729;10.7863627;0101000020E6100000A996BE219E9225405BA5AABF14FC1940;village;Barbo;OSM;Settlement;
107;0;7;2017-03-23 12:36:44.559086+01;;;0;0;0;6.722435;10.6195953;0101000020E6100000B8825C983B3D25406BF12900C6E31A40;village;Bebeketti;OSM;Settlement;
108;0;7;2017-03-23 12:36:44.559086+01;;;0;0;0;6.4940581;10.1101508;0101000020E6100000A84187AF65382440AC4BD75DEAF91940;village;Bedomossam;OSM;Settlement;
109;0;7;2017-03-23 12:36:44.559086+01;;;0;0;0;5.883004;9.7603578;0101000020E61000005B84189E4D852340E0F2583332881740;village;Befang;OSM;Settlement;
110;0;7;2017-03-23 12:36:44.559086+01;;;0;0;0;6.5160524;10.0964706;0101000020E61000000E0D309864312440D916540A70101A40;village;Bekadza;OSM;Settlement;
111;0;7;2017-03-23 12:36:44.559086+01;;;0;0;0;6.3226518;10.0046198;0101000020E610000000D4C3865D0224406DFBC33B654A1940;village;Belifang;OSM;Settlement;
112;0;7;2017-03-23 12:36:44.559086+01;;;0;0;0;5.9011505;9.7543674;0101000020E61000004C56A0713C822340A0185932C79A1740;village;Bendi;OSM;Settlement;
113;0;7;2017-03-23 12:36:44.559086+01;;;0;0;0;6.6890507;10.7412642;0101000020E6100000266431FB867B2540C524B78196C11A40;village;Berabe;OSM;Settlement;
114;0;7;2017-03-23 12:36:44.559086+01;;;0;0;0;6.7235124;10.7304571;0101000020E610000013431779FE7525407B00416FE0E41A40;village;Berobi;OSM;Settlement;
115;0;7;2017-03-23 12:36:44.559086+01;;;0;0;0;5.8124581;9.9172093;0101000020E6100000922C16759CD523402F7B2304F53F1740;village;Besi;OSM;Settlement;
116;0;7;2017-03-23 12:36:44.559086+01;;;0;0;0;6.6012279;10.7643123;0101000020E610000070DC18F15387254062C55F49A8671A40;village;Bi;OSM;Settlement;
117;0;7;2017-03-23 12:36:44.559086+01;;;0;0;0;6.926871;10.0833431;0101000020E6100000CCB161F2AB2A24407A71E2AB1DB51B40;village;Biendo;OSM;Settlement;
118;0;7;2017-03-23 12:36:44.559086+01;;;0;0;0;6.9564196;10.6304639;0101000020E6100000039E0F2ACC4225407C03DDA85FD31B40;village;Bogu;OSM;Settlement;
119;0;7;2017-03-23 12:36:44.559086+01;;;0;0;0;6.3421651;10.2592412;0101000020E6100000358D3743BB8424408D542987605E1940;village;Bolem;OSM;Settlement;
120;0;7;2017-03-23 12:36:44.559086+01;;;0;0;0;6.5785545;10.794287;0101000020E6100000A24621C9AC96254085D0419770501A40;village;Bomanso;OSM;Settlement;
121;0;7;2017-03-23 12:36:44.559086+01;;;0;0;0;6.5203819;10.7651686;0101000020E61000002BDAC12DC4872540ACB827FEDE141A40;village;Bomba;OSM;Settlement;
122;0;7;2017-03-23 12:36:44.559086+01;;;0;0;0;5.973734;10.0025616;0101000020E61000006C7308C14F012440580394861AE51740;village;Bome;OSM;Settlement;
123;0;7;2017-03-23 12:36:44.559086+01;;;0;0;0;5.9348261;9.9798038;0101000020E610000038FEFAD7A8F52340F6C99B0D43BD1740;village;Bosa;OSM;Settlement;
124;0;7;2017-03-23 12:36:44.559086+01;;;0;0;0;6.1799758;10.8742722;0101000020E61000009C9A159BA0BF254027497C934BB81840;village;Boshong;OSM;Settlement;
125;0;7;2017-03-23 12:36:44.559086+01;;;0;0;0;5.9686166;9.7659871;0101000020E6100000D6500F762F8823406B73AD07DDDF1740;village;Bosi;OSM;Settlement;
126;0;7;2017-03-23 12:36:44.559086+01;;;0;0;0;6.1145367;10.13515;0101000020E6100000DA1B7C61324524405EC4D21B49751840;village;Bukari;OSM;Settlement;
127;0;7;2017-03-23 12:36:44.559086+01;;;0;0;0;5.905635;9.7309327;0101000020E61000006A2794CF3C762340AC730CC85E9F1740;village;Bulam;OSM;Settlement;
128;0;7;2017-03-23 12:36:44.559086+01;;;0;0;0;6.4345124;10.3388397;0101000020E6100000432CAC657CAD24406DD38ED1F0BC1940;village;Bwabwa;OSM;Settlement;
129;0;7;2017-03-23 12:36:44.559086+01;;;0;0;0;6.5107435;10.784108;0101000020E61000005E10919A769125400C941458000B1A40;village;Bwanmbe;OSM;Settlement;
130;0;7;2017-03-23 12:36:44.559086+01;;;0;0;0;6.3421516;10.4562706;0101000020E6100000AA40D24C9CE92440A71831FD5C5E1940;village;Chang;OSM;Settlement;
131;0;7;2017-03-23 12:36:44.559086+01;;;0;0;0;6.0185951;10.5457714;0101000020E61000002C2F54596F172540A17609980A131840;village;Chingo;OSM;Settlement;
132;0;7;2017-03-23 12:36:44.559086+01;;;0;0;0;5.911435;10.095975;0101000020E61000009A779CA22331244013B875374FA51740;village;Chomba;OSM;Settlement;
133;0;7;2017-03-23 12:36:44.559086+01;;;0;0;0;6.4828648;10.6635529;0101000020E6100000F854A934BD532540EE8E311C74EE1940;village;Chup;OSM;Settlement;
134;0;7;2017-03-23 12:36:44.559086+01;;;0;0;0;6.5390272;11.0704054;0101000020E610000071EC342D0C242640289E0EBFF6271A40;village;Chye;OSM;Settlement;
135;0;7;2017-03-23 12:36:44.559086+01;;;0;0;0;6.7350677;10.4661032;0101000020E6100000341F2114A5EE24403E624F96B5F01A40;village;Dabene;OSM;Settlement;
136;0;7;2017-03-23 12:36:44.559086+01;;;0;0;0;5.8760138;9.726207;0101000020E6100000A7406667D1732340F560F7C209811740;village;Denku;OSM;Settlement;
137;0;7;2017-03-23 12:36:44.559086+01;;;0;0;0;5.8501273;9.7561493;0101000020E61000005EC944002683234043BF5BC587661740;village;Diche I;OSM;Settlement;
138;0;7;2017-03-23 12:36:44.559086+01;;;0;0;0;5.82883;9.7771262;0101000020E6100000C1BA3B7CE38D234054C6BFCFB8501740;village;Diche II;OSM;Settlement;
139;0;7;2017-03-23 12:36:44.559086+01;;;0;0;0;6.334794;10.5192684;0101000020E610000047B1378CDD0925408D96033DD4561940;village;Din;OSM;Settlement;
140;0;7;2017-03-23 12:36:44.559086+01;;;0;0;0;6.5021293;10.3584534;0101000020E6100000AF473C3487B724401874E72E2E021A40;village;Djingbe;OSM;Settlement;
141;0;7;2017-03-23 12:36:44.559086+01;;;0;0;0;6.7041861;10.5124293;0101000020E61000003C061A225D062540EF30372916D11A40;village;Dumbo;OSM;Settlement;
142;0;7;2017-03-23 12:36:44.559086+01;;;0;0;0;6.2154257;10.8014899;0101000020E61000000C2659E25C9A254023DF008E98DC1840;village;Dzeng;OSM;Settlement;
143;0;7;2017-03-23 12:36:44.559086+01;;;0;0;0;5.9911502;9.8188662;0101000020E61000007F99396E42A3234008B2F913F0F61740;village;Ebang;OSM;Settlement;
144;0;7;2017-03-23 12:36:44.559086+01;;;0;0;0;6.3846646;10.1827447;0101000020E6100000E0089CB6905D244037B75384E5891940;village;Ebo;OSM;Settlement;
145;0;7;2017-03-23 12:36:44.559086+01;;;0;0;0;6.8979619;10.6257739;0101000020E61000007961C66F654025405237065383971B40;village;Ebosheng;OSM;Settlement;
146;0;7;2017-03-23 12:36:44.559086+01;;;0;0;0;5.9756044;9.8003269;0101000020E6100000D7378B72C4992340B655FFD604E71740;village;Edem;OSM;Settlement;
147;0;7;2017-03-23 12:36:44.559086+01;;;0;0;0;6.8834663;10.6280547;0101000020E6100000BC32B96290412540F678C663AB881B40;village;Edifia;OSM;Settlement;
148;0;7;2017-03-23 12:36:44.559086+01;;;0;0;0;5.7749602;9.8509403;0101000020E610000065B26E72AEB3234075CEAA2A8F191740;village;Efa;OSM;Settlement;
149;0;7;2017-03-23 12:36:44.559086+01;;;0;0;0;5.9336695;9.6955803;0101000020E6100000D67BE0192364234037177FDB13BC1740;village;Egbeachu;OSM;Settlement;
150;0;7;2017-03-23 12:36:44.559086+01;;;0;0;0;5.7814907;9.8973179;0101000020E6100000153B75406DCB234039831A193F201740;village;Enyo;OSM;Settlement;
151;0;7;2017-03-23 12:36:44.559086+01;;;0;0;0;6.5721224;10.094672;0101000020E61000009EB12FD978302440723C5574DA491A40;village;Essu;OSM;Settlement;
152;0;7;2017-03-23 12:36:44.559086+01;;;0;0;0;5.989813;9.8603914;0101000020E6100000F184B93885B82340629F008A91F51740;village;Etwii;OSM;Settlement;
153;0;7;2017-03-23 12:36:44.559086+01;;;0;0;0;5.7553611;9.9146965;0101000020E61000000588821953D42340AEAE54617D051740;village;Ewa;OSM;Settlement;
154;0;7;2017-03-23 12:36:44.559086+01;;;0;0;0;6.3319227;10.1939986;0101000020E610000088F0D4C8536324403833558BE3531940;village;Ewo;OSM;Settlement;
155;0;7;2017-03-23 12:36:44.559086+01;;;0;0;0;6.5501426;10.2886615;0101000020E6100000863AAC70CB932440AF8BEC9458331A40;village;Fang;OSM;Settlement;
156;0;7;2017-03-23 12:36:44.559086+01;;;0;0;0;6.5303281;10.6398078;0101000020E6100000907351E3944725406A9956540E1F1A40;village;Fingo;OSM;Settlement;
157;0;7;2017-03-23 12:36:44.559086+01;;;0;0;0;6.073286;10.4669554;0101000020E6100000966137C714EF2440C504357C0B4B1840;village;Finkue;OSM;Settlement;
158;0;7;2017-03-23 12:36:44.559086+01;;;0;0;0;6.3455658;10.2210768;0101000020E610000005CF73FA30712440DD764600DC611940;village;Fom;OSM;Settlement;
159;0;7;2017-03-23 12:36:44.559086+01;;;0;0;0;6.0398433;10.1976535;0101000020E61000003FE1ECD632652440DFDB99AECC281840;village;Foya;OSM;Settlement;
160;0;7;2017-03-23 12:36:44.559086+01;;;0;0;0;6.8777817;10.0227117;0101000020E61000001F7931DEA00B2440F01BBA34D9821B40;village;Furubana;OSM;Settlement;
161;0;7;2017-03-23 12:36:44.559086+01;;;0;0;0;7.0154613;10.1580613;0101000020E6100000C8862469ED502440226A4716D50F1C40;village;Furuwa;OSM;Settlement;
162;0;7;2017-03-23 12:36:44.559086+01;;;0;0;0;7.0689545;10.595577;0101000020E6100000E57FF277EF302540ECA529029C461C40;village;G. Boro;OSM;Settlement;
163;0;7;2017-03-23 12:36:44.559086+01;;;0;0;0;7.0129382;10.6157144;0101000020E61000003F5AF7EA3E3B2540F779E7AB3F0D1C40;village;Gajeri-Bagu;OSM;Settlement;
164;0;7;2017-03-23 12:36:44.559086+01;;;0;0;0;6.6511537;11.0703822;0101000020E6100000E970BE220924264076AD1809C89A1A40;village;Gam;OSM;Settlement;
165;0;7;2017-03-23 12:36:44.559086+01;;;0;0;0;5.9181001;9.7475569;0101000020E61000005CCC2AC7BF7E23403CD1BF6E22AC1740;village;Gana;OSM;Settlement;
166;0;7;2017-03-23 12:36:44.559086+01;;;0;0;0;6.8491468;10.4953937;0101000020E6100000F349383EA4FD244020031EBD86651B40;village;Gidan-Jikum;OSM;Settlement;
167;0;7;2017-03-23 12:36:44.559086+01;;;0;0;0;5.9928537;9.9630769;0101000020E6100000EE105A6A18ED2340B3D9ECA3AEF81740;village;Njindom;OSM;Settlement;
168;0;7;2017-03-23 12:36:44.559086+01;;;0;0;0;5.8380818;9.9333949;0101000020E6100000A281B3EFE5DD2340C37D891D325A1740;village;Guzang;OSM;Settlement;
169;0;7;2017-03-23 12:36:44.559086+01;;;0;0;0;5.9098467;9.9197423;0101000020E6100000E27E7676E8D623407D7E73DAAEA31740;village;Gwofon;OSM;Settlement;
170;0;7;2017-03-23 12:36:44.559086+01;;;0;0;0;6.7000835;10.6097635;0101000020E6100000C896E5EB323825407AE063B0E2CC1A40;village;Jama;OSM;Settlement;
171;0;7;2017-03-23 12:36:44.559086+01;;;0;0;0;5.8712314;9.9814313;0101000020E6100000A28AD1297EF6234041FE8815247C1740;village;Jemajema;OSM;Settlement;
172;0;7;2017-03-23 12:36:44.559086+01;;;0;0;0;5.8165455;9.896027;0101000020E61000007EAA0A0DC4CA2340ACC8E88024441740;village;Jimako;OSM;Settlement;
173;0;7;2017-03-23 12:36:44.559086+01;;;0;0;0;5.9620969;9.9602666;0101000020E6100000DAE15410A8EB2340F95404EE2FD91740;village;Jimda;OSM;Settlement;
174;0;7;2017-03-23 12:36:44.559086+01;;;0;0;0;6.4167776;10.7888405;0101000020E61000004485EAE6E29325404CD246BFC7AA1940;village;Jinego;OSM;Settlement;
175;0;7;2017-03-23 12:36:44.559086+01;;;0;0;0;6.2540821;10.6802687;0101000020E610000020FCD52D4C5C2540FAFE17192E041940;village;Kakaymfu;OSM;Settlement;
176;0;7;2017-03-23 12:36:44.559086+01;;;0;0;0;6.4579997;10.2949303;0101000020E6100000EE32B21A01972440AE4F94DFFDD41940;village;Kam;OSM;Settlement;
177;0;7;2017-03-23 12:36:44.559086+01;;;0;0;0;6.3076163;10.6115803;0101000020E610000078C1960D21392540B9DD70C4FF3A1940;village;Ketzem;OSM;Settlement;
178;0;7;2017-03-23 12:36:44.559086+01;;;0;0;0;6.2296993;10.8223268;0101000020E6100000A93FB10408A5254008A8154B36EB1840;village;Kifem;OSM;Settlement;
179;0;7;2017-03-23 12:36:44.559086+01;;;0;0;0;6.2384238;10.6576494;0101000020E6100000D277126CB7502540285A5E5E25F41840;village;Kikaikom;OSM;Settlement;
180;0;7;2017-03-23 12:36:44.559086+01;;;0;0;0;6.1682385;10.2787331;0101000020E61000001AA0D91AB68E24405FB69DB646AC1840;village;Kikfuni;OSM;Settlement;
181;0;7;2017-03-23 12:36:44.559086+01;;;0;0;0;6.3128527;10.7486065;0101000020E61000006325E659497F254077DC4B755C401940;village;Kishong;OSM;Settlement;
182;0;7;2017-03-23 12:36:44.559086+01;;;0;0;0;6.3332645;10.078769;0101000020E610000093E00D6954282440D2AB014A43551940;village;Koa;OSM;Settlement;
183;0;7;2017-03-23 12:36:44.559086+01;;;0;0;0;6.5855039;10.9433181;0101000020E610000021730A97FAE22540C9B898558E571A40;village;Koffa;OSM;Settlement;
184;0;7;2017-03-23 12:36:44.559086+01;;;0;0;0;6.6285256;10.9297806;0101000020E610000018E9EA330CDC25408CCB02379C831A40;village;Kom;OSM;Settlement;
185;0;7;2017-03-23 12:36:44.559086+01;;;0;0;0;5.9834092;9.7590944;0101000020E61000004B276D05A8842340935742D202EF1740;village;Kong;OSM;Settlement;
186;0;7;2017-03-23 12:36:44.559086+01;;;0;0;0;5.8450157;9.8357996;0101000020E61000000F05D8ECEDAB23401B6DB0CB4B611740;village;Korube;OSM;Settlement;
187;0;7;2017-03-23 12:36:44.559086+01;;;0;0;0;6.5891186;10.28163;0101000020E61000001C25AFCE3190244079DC01E8415B1A40;village;Koskin;OSM;Settlement;
188;0;7;2017-03-23 12:36:44.559086+01;;;0;0;0;6.3175129;10.2765598;0101000020E6100000CFC6003F998D2440833B061A22451940;village;Kujoa;OSM;Settlement;
189;0;7;2017-03-23 12:36:44.559086+01;;;0;0;0;6.4800609;10.1626689;0101000020E610000010278B5649532440725AA61595EB1940;village;Kumfutu;OSM;Settlement;
190;0;7;2017-03-23 12:36:44.559086+01;;;0;0;0;5.8567454;9.8636059;0101000020E6100000EA43728D2ABA234067FE87AA4E6D1740;village;Kunok;OSM;Settlement;
191;0;7;2017-03-23 12:36:44.559086+01;;;0;0;0;6.6712668;10.0851553;0101000020E61000008229B979992B2440F28F639060AF1A40;village;Kunyang;OSM;Settlement;
192;0;7;2017-03-23 12:36:44.559086+01;;;0;0;0;5.897902;9.9276722;0101000020E610000016D1C0D9F7DA23404E0D349F73971740;village;Kurabi;OSM;Settlement;
193;0;7;2017-03-23 12:36:44.559086+01;;;0;0;0;6.6429214;11.0833382;0101000020E6100000D803F74DAB2A26401998CBFC59921A40;village;Kwajal;OSM;Settlement;
194;0;7;2017-03-23 12:36:44.559086+01;;;0;0;0;6.6741242;10.2563316;0101000020E6100000DADC3DE53D832440C6C4419D4DB21A40;village;Kwana;OSM;Settlement;
195;0;7;2017-03-23 12:36:44.559086+01;;;0;0;0;5.7682241;10.058321;0101000020E61000000C570740DC1D244003FFA556A9121740;village;Kwang;OSM;Settlement;
196;0;7;2017-03-23 12:36:44.559086+01;;;0;0;0;6.4882686;10.4326843;0101000020E61000003DFCEBCB88DD2440A2A712AFFCF31940;village;Laa-Bum;OSM;Settlement;
197;0;7;2017-03-23 12:36:44.559086+01;;;0;0;0;6.3556919;10.0876801;0101000020E61000002005F467E42C2440F4CE577F3A6C1940;village;Laguran;OSM;Settlement;
198;0;7;2017-03-23 12:36:44.559086+01;;;0;0;0;6.1680004;10.8781491;0101000020E61000000F0643C29CC1254014DCFE4B08AC1840;village;Lam;OSM;Settlement;
199;0;7;2017-03-23 12:36:44.559086+01;;;0;0;0;6.6562228;10.9767292;0101000020E6100000B31886D915F42540E68EA3DEF89F1A40;village;Lassi;OSM;Settlement;
200;0;7;2017-03-23 12:36:44.559086+01;;;0;0;0;6.3082898;10.730187;0101000020E6100000C0ED0912DB752540F3C24252B03B1940;village;Ma;OSM;Settlement;
201;0;7;2017-03-23 12:36:44.559086+01;;;0;0;0;5.9946825;10.617517;0101000020E6100000B4722F302B3C2540349D9D0C8EFA1740;village;Mambin;OSM;Settlement;
202;0;7;2017-03-23 12:36:44.559086+01;;;0;0;0;6.7115941;10.8395482;0101000020E6100000D2D4FC42D9AD2540311BAE1FACD81A40;village;Mankem;OSM;Settlement;
203;0;7;2017-03-23 12:36:44.559086+01;;;0;0;0;6.0056298;10.1038897;0101000020E610000052C8DF073135244037887BD1C3051840;village;Mankon;OSM;Settlement;
204;0;7;2017-03-23 12:36:44.559086+01;;;0;0;0;6.3752133;10.8454836;0101000020E6100000D39BF639E3B02540D21852EA37801940;village;Manntumbo;OSM;Settlement;
205;0;7;2017-03-23 12:36:44.559086+01;;;0;0;0;6.1395162;10.1123254;0101000020E61000002E05FFB6823924407D0CB155DD8E1840;village;Manta;OSM;Settlement;
206;0;7;2017-03-23 12:36:44.559086+01;;;0;0;0;6.6007476;10.2670393;0101000020E6100000547E0860B98824401A9AFC602A671A40;village;Mashi;OSM;Settlement;
207;0;7;2017-03-23 12:36:44.559086+01;;;0;0;0;6.7313035;10.5629563;0101000020E61000008227E3CE3B20254025CD1FD3DAEC1A40;village;Maya-Kilan;OSM;Settlement;
208;0;7;2017-03-23 12:36:44.559086+01;;;0;0;0;6.5200617;11.0569486;0101000020E6100000211BED5D281D2640D19BE50D8B141A40;village;Mbak;OSM;Settlement;
209;0;7;2017-03-23 12:36:44.559086+01;;;0;0;0;6.1869549;10.067181;0101000020E61000003DD34B8C65222440CC4EF51A71BF1840;village;Mbakon;OSM;Settlement;
210;0;7;2017-03-23 12:36:44.559086+01;;;0;0;0;6.6084517;10.9458108;0101000020E61000003E682C5041E425404CC862F60D6F1A40;village;Mbala;OSM;Settlement;
211;0;7;2017-03-23 12:36:44.559086+01;;;0;0;0;6.2999914;10.6385052;0101000020E6100000E2A65027EA462540345310F230331940;village;Mbam;OSM;Settlement;
212;0;7;2017-03-23 12:36:44.559086+01;;;0;0;0;6.6896296;10.638759;0101000020E6100000240D6E6B0B4725400C6A09432EC21A40;village;Mbandé;OSM;Settlement;
213;0;7;2017-03-23 12:36:44.559086+01;;;0;0;0;6.5793606;10.9284313;0101000020E6100000602AEC585BDB25401F5DB6E743511A40;village;Mbat;OSM;Settlement;
214;0;7;2017-03-23 12:36:44.559086+01;;;0;0;0;6.095396;10.5727093;0101000020E6100000E83A43273A25254047AD307DAF611840;village;Mbawere;OSM;Settlement;
215;0;7;2017-03-23 12:36:44.559086+01;;;0;0;0;6.4499312;11.0447162;0101000020E6100000EA33B10AE5162640D6CCB5C3BACC1940;village;Mbem;OSM;Settlement;
216;0;7;2017-03-23 12:36:44.559086+01;;;0;0;0;6.5070502;10.8695695;0101000020E6100000BA32A83638BD254096B8E92A38071A40;village;Mbemgi;OSM;Settlement;
217;0;7;2017-03-23 12:36:44.559086+01;;;0;0;0;5.9008389;9.8298808;0101000020E61000001928DF22E6A82340C4DB3983759A1740;village;Mbengok;OSM;Settlement;
218;0;7;2017-03-23 12:36:44.559086+01;;;0;0;0;6.1893007;10.8731634;0101000020E6100000DA20EE450FBF25408C70EE0AD8C11840;village;Mbiami;OSM;Settlement;
219;0;7;2017-03-23 12:36:44.559086+01;;;0;0;0;6.609984;10.895209;0101000020E6100000732B84D558CA254043554CA59F701A40;village;Mbibzi;OSM;Settlement;
220;0;7;2017-03-23 12:36:44.559086+01;;;0;0;0;6.6145883;10.9324638;0101000020E610000064682BE56BDD25405704A4A256751A40;village;Mbinji;OSM;Settlement;
221;0;7;2017-03-23 12:36:44.559086+01;;;0;0;0;6.3478565;11.1363173;0101000020E61000000FC29261CB452640D9CD8C7E34641940;village;Mbirikwa;OSM;Settlement;
222;0;7;2017-03-23 12:36:44.559086+01;;;0;0;0;6.6289407;10.5530271;0101000020E61000007B9A385E261B25404F7EE60709841A40;village;Mbissa;OSM;Settlement;
223;0;7;2017-03-23 12:36:44.559086+01;;;0;0;0;6.45134;10.7630737;0101000020E61000001CE09398B1862540AE81AD122CCE1940;village;Mbiye;OSM;Settlement;
224;0;7;2017-03-23 12:36:44.559086+01;;;0;0;0;6.3292388;10.3453962;0101000020E61000004A534EC5D7B02440114CDAF923511940;village;Mbo;OSM;Settlement;
225;0;7;2017-03-23 12:36:44.559086+01;;;0;0;0;6.380621;10.2387622;0101000020E6100000C20A010A3F7A2440EAAEEC82C1851940;village;Mbolem;OSM;Settlement;
226;0;7;2017-03-23 12:36:44.559086+01;;;0;0;0;6.1534071;10.8872821;0101000020E610000004A7E3D649C6254095E535C0169D1840;village;Mbomzem;OSM;Settlement;
227;0;7;2017-03-23 12:36:44.559086+01;;;0;0;0;5.9031932;10.1311734;0101000020E6100000D335EE2829432440DBE09FADDE9C1740;village;Mboutou;OSM;Settlement;
228;0;7;2017-03-23 12:36:44.559086+01;;;0;0;0;5.8496727;10.0889192;0101000020E610000014F93FD1862D24405137AB9910661740;village;Mbu;OSM;Settlement;
229;0;7;2017-03-23 12:36:44.559086+01;;;0;0;0;5.8434622;9.968531;0101000020E61000000953944BE3EF23401BA6118EB45F1740;village;Mbufong;OSM;Settlement;
230;0;7;2017-03-23 12:36:44.559086+01;;;0;0;0;6.2456823;10.8117727;0101000020E61000003D92DCABA09F254002D30E2494FB1840;village;Mbui;OSM;Settlement;
231;0;7;2017-03-23 12:36:44.559086+01;;;0;0;0;6.5808229;10.3790339;0101000020E6100000922639BB10C224404F12013DC3521A40;village;Mbuk;OSM;Settlement;
232;0;7;2017-03-23 12:36:44.559086+01;;;0;0;0;5.8517584;9.8997297;0101000020E6100000D37A095FA9CC2340865FA05A33681740;village;Mbunjei;OSM;Settlement;
233;0;7;2017-03-23 12:36:44.559086+01;;;0;0;0;6.4316546;11.0245125;0101000020E6100000B8AF03E78C0C2640FEABD8A903BA1940;village;Mbwi;OSM;Settlement;
234;0;7;2017-03-23 12:36:44.559086+01;;;0;0;0;6.332898;10.2310933;0101000020E610000041A66BDC51762440809D9B36E3541940;village;Meh;OSM;Settlement;
235;0;7;2017-03-23 12:36:44.559086+01;;;0;0;0;6.2932425;10.3377128;0101000020E610000095E12EB1E8AC24406A300DC3472C1940;village;Mejong;OSM;Settlement;
236;0;7;2017-03-23 12:36:44.559086+01;;;0;0;0;6.5547489;10.0560054;0101000020E61000007ECC62BDAC1C2440C8F77B1810381A40;village;Melang;OSM;Settlement;
237;0;7;2017-03-23 12:36:44.559086+01;;;0;0;0;6.2706522;10.230525;0101000020E610000020D26F5F077624409F5CAED925151940;village;Meli;OSM;Settlement;
238;0;7;2017-03-23 12:36:44.559086+01;;;0;0;0;6.0600238;10.5547124;0101000020E6100000105F8143031C254034ED07E1763D1840;village;Membé;OSM;Settlement;
239;0;7;2017-03-23 12:36:44.559086+01;;;0;0;0;5.9274045;10.2075762;0101000020E61000001DDB7C6D476A244026A77686A9B51740;village;Menda Nkwe;OSM;Settlement;
240;0;7;2017-03-23 12:36:44.559086+01;;;0;0;0;5.9884021;9.7158567;0101000020E6100000B63EF6C4846E2340DE301BAE1FF41740;village;Menka;OSM;Settlement;
241;0;7;2017-03-23 12:36:44.559086+01;;;0;0;0;6.1532431;10.6910707;0101000020E61000009972CF04D4612540C3595BC2EB9C1840;village;Mensay;OSM;Settlement;
242;0;7;2017-03-23 12:36:44.559086+01;;;0;0;0;6.1559872;10.2272881;0101000020E61000003B8A181B5F742440E260CA1BBB9F1840;village;Meyang;OSM;Settlement;
243;0;7;2017-03-23 12:36:44.559086+01;;;0;0;0;6.2957717;10.0928894;0101000020E6100000464A0E338F2F24404D54CAC6DE2E1940;village;Minyan;OSM;Settlement;
244;0;7;2017-03-23 12:36:44.559086+01;;;0;0;0;6.7448607;10.7679947;0101000020E6100000AE00F099368925407C4D6AC3BCFA1A40;village;Miribua;OSM;Settlement;
245;0;7;2017-03-23 12:36:44.559086+01;;;0;0;0;6.5975171;10.2469989;0101000020E6100000C34BCBA3767E2440FB33CD85DB631A40;village;Missong;OSM;Settlement;
246;0;7;2017-03-23 12:36:44.559086+01;;;0;0;0;6.3541837;10.2371877;0101000020E6100000E4068DAA70792440E81AC121AF6A1940;village;Mme-Bafumen;OSM;Settlement;
247;0;7;2017-03-23 12:36:44.559086+01;;;0;0;0;5.8082598;9.7833234;0101000020E61000001062C2C30F9123409EAFFE74A83B1740;village;Mobang;OSM;Settlement;
248;0;7;2017-03-23 12:36:44.559086+01;;;0;0;0;6.3539662;9.967523;0101000020E61000007041B62C5FEF2340BE8E931D766A1940;village;Modele;OSM;Settlement;
249;0;7;2017-03-23 12:36:44.559086+01;;;0;0;0;6.1263517;10.399853;0101000020E61000003C6A4C88B9CC24400F2D0D5762811840;village;Mufuo;OSM;Settlement;
250;0;7;2017-03-23 12:36:44.559086+01;;;0;0;0;5.8739235;9.9664388;0101000020E6100000C52BFF10D1EE2340CCD24ECDE57E1740;village;Mukwo;OSM;Settlement;
251;0;7;2017-03-23 12:36:44.559086+01;;;0;0;0;6.7337386;9.9788306;0101000020E6100000EBA5CE4829F523405540EB2B59EF1A40;village;Munkep;OSM;Settlement;
252;0;7;2017-03-23 12:36:44.559086+01;;;0;0;0;6.0395256;10.5049659;0101000020E6100000BF30F4E38A0225404B6B1D6679281840;village;Muya;OSM;Settlement;
253;0;7;2017-03-23 12:36:44.559086+01;;;0;0;0;6.5592296;10.2053744;0101000020E61000000ADF56D52669244016D22BAFA63C1A40;village;Mven;OSM;Settlement;
254;0;7;2017-03-23 12:36:44.559086+01;;;0;0;0;6.9796708;10.1481025;0101000020E610000064E94317D44B244077627BD22EEB1B40;village;Nangwa;OSM;Settlement;
255;0;7;2017-03-23 12:36:44.559086+01;;;0;0;0;6.3524929;10.3947829;0101000020E6100000420AF9FB20CA2440EE4916E6F3681940;village;Nchain;OSM;Settlement;
256;0;7;2017-03-23 12:36:44.559086+01;;;0;0;0;6.8209148;10.6035153;0101000020E6100000714518F5FF342540A335ABE39D481B40;village;Ndaka;OSM;Settlement;
257;0;7;2017-03-23 12:36:44.559086+01;;;0;0;0;6.2470042;10.0344074;0101000020E6100000147BC3D89D11244009E643ABEEFC1840;village;Ndong;OSM;Settlement;
258;0;7;2017-03-23 12:36:44.559086+01;;;0;0;0;6.1082903;10.7097065;0101000020E61000006A847EA65E6B254068E503A7E36E1840;village;Ndze;OSM;Settlement;
259;0;7;2017-03-23 12:36:44.559086+01;;;0;0;0;5.8288137;9.8351811;0101000020E610000080796DDB9CAB234033E8DF89B4501740;village;Nen;OSM;Settlement;
260;0;7;2017-03-23 12:36:44.559086+01;;;0;0;0;6.4489547;10.9884879;0101000020E6100000C3FB05161BFA2540BE8AE7C7BACB1940;village;Ngang;OSM;Settlement;
261;0;7;2017-03-23 12:36:44.559086+01;;;0;0;0;5.9568576;10.0460811;0101000020E61000006BED22F19717244059B78B7AD2D31740;village;Ngembo;OSM;Settlement;
262;0;7;2017-03-23 12:36:44.559086+01;;;0;0;0;5.8888918;9.9572152;0101000020E6100000DC77561C18EA2340F4BAEAA6398E1740;village;Ngenmewa;OSM;Settlement;
263;0;7;2017-03-23 12:36:44.559086+01;;;0;0;0;6.3998059;11.1361495;0101000020E6100000C7BB2363B5452640CBFDC4B766991940;village;Ngomkila;OSM;Settlement;
264;0;7;2017-03-23 12:36:44.559086+01;;;0;0;0;6.7909006;10.7390724;0101000020E6100000A1C096B2677A25400F8CCDD8E1291B40;village;Ngomo I;OSM;Settlement;
265;0;7;2017-03-23 12:36:44.559086+01;;;0;0;0;6.8001227;10.7338692;0101000020E610000058152BB4BD7725401D26755D53331B40;village;Ngomo II;OSM;Settlement;
266;0;7;2017-03-23 12:36:44.559086+01;;;0;0;0;6.4292614;11.1526544;0101000020E6100000562EAFB7284E26409EBDE94C90B71940;village;Ngonnkor;OSM;Settlement;
267;0;7;2017-03-23 12:36:44.559086+01;;;0;0;0;6.4180386;10.4686782;0101000020E610000040B2CA96F6EF2440CDDC8D4F12AC1940;village;Ngonovisse;OSM;Settlement;
268;0;7;2017-03-23 12:36:44.559086+01;;;0;0;0;6.0861627;10.9498504;0101000020E61000005F2FA8CA52E625404D8AEA083B581840;village;Ngonsin;OSM;Settlement;
269;0;7;2017-03-23 12:36:44.559086+01;;;0;0;0;6.1343113;10.2517585;0101000020E6100000E3FA777DE6802440D8EEC3E688891840;village;Ngotin-Numeyang;OSM;Settlement;
270;0;7;2017-03-23 12:36:44.559086+01;;;0;0;0;6.3263393;11.1188;0101000020E61000009487855AD33C26401F99B3E32B4E1940;village;Ngu;OSM;Settlement;
271;0;7;2017-03-23 12:36:44.559086+01;;;0;0;0;6.3157146;11.0951982;0101000020E6100000B14687D1BD302640987A27B04A431940;village;Ngule;OSM;Settlement;
272;0;7;2017-03-23 12:36:44.559086+01;;;0;0;0;6.3057502;10.2322546;0101000020E6100000EDB02E13EA7624405AFB969416391940;village;Ngunen;OSM;Settlement;
273;0;7;2017-03-23 12:36:44.559086+01;;;0;0;0;6.5920239;11.0111947;0101000020E6100000EEC6CC4FBB0526402FCD63833B5E1A40;village;Ngung;OSM;Settlement;
274;0;7;2017-03-23 12:36:44.559086+01;;;0;0;0;5.9952928;10.496034;0101000020E61000007B681F2BF8FD2440EEC627092EFB1740;village;Ngwala;OSM;Settlement;
275;0;7;2017-03-23 12:36:44.559086+01;;;0;0;0;5.9713506;9.9116555;0101000020E6100000E36F7B82C4D22340C7CC4FBBA9E21740;village;Ngwokwong;OSM;Settlement;
276;0;7;2017-03-23 12:36:44.559086+01;;;0;0;0;6.5142702;10.6731428;0101000020E610000064134F2CA6582540C23AE9D89C0E1A40;village;Ngé;OSM;Settlement;
277;0;7;2017-03-23 12:36:44.559086+01;;;0;0;0;6.5174617;10.6929098;0101000020E6100000E327C412C5622540F2BAD97AE1111A40;village;Njap;OSM;Settlement;
278;0;7;2017-03-23 12:36:44.559086+01;;;0;0;0;6.6617657;10.260433;0101000020E61000002D996379578524404C755CE8A5A51A40;village;Nkang;OSM;Settlement;
279;0;7;2017-03-23 12:36:44.559086+01;;;0;0;0;6.675841;10.2658879;0101000020E6100000E2CD7575228824400A2FC1A90FB41A40;village;Nkannye;OSM;Settlement;
280;0;7;2017-03-23 12:36:44.559086+01;;;0;0;0;6.3186122;10.7024997;0101000020E61000004EE6690AAE6725402B6DCC4642461940;village;Nkin;OSM;Settlement;
281;0;7;2017-03-23 12:36:44.559086+01;;;0;0;0;6.3555943;11.1324109;0101000020E610000092448A5CCB432640789384E9206C1940;village;Nking;OSM;Settlement;
282;0;7;2017-03-23 12:36:44.559086+01;;;0;0;0;6.622029;10.7408252;0101000020E6100000F61ACC704D7B254083A7902BF57C1A40;village;Nkonchep;OSM;Settlement;
283;0;7;2017-03-23 12:36:44.559086+01;;;0;0;0;5.9292011;10.1245098;0101000020E610000021109EBFBF3F244000A13F7E80B71740;village;Nsongwa (Bamenda);OSM;Settlement;
284;0;7;2017-03-23 12:36:44.559086+01;;;0;0;0;5.9515925;9.9500442;0101000020E61000004C8281316CE62340BC79AA436ECE1740;village;Ntah Etuh;OSM;Settlement;
285;0;7;2017-03-23 12:36:44.559086+01;;;0;0;0;6.3237792;11.0358643;0101000020E6100000183037CE5C1226400B804CC68C4B1940;village;Ntem;OSM;Settlement;
286;0;7;2017-03-23 12:36:44.559086+01;;;0;0;0;6.4845155;10.8710708;0101000020E61000004900EDFDFCBD2540CF9ECBD424F01940;village;Ntisso;OSM;Settlement;
287;0;7;2017-03-23 12:36:44.559086+01;;;0;0;0;6.5918112;11.0711954;0101000020E6100000544035B97324264046A055C1035E1A40;village;Ntong;OSM;Settlement;
288;0;7;2017-03-23 12:36:44.559086+01;;;0;0;0;6.6536594;10.7084981;0101000020E6100000688E5143C06A254055E4C6E3589D1A40;village;Ntumbe II;OSM;Settlement;
289;0;7;2017-03-23 12:36:44.559086+01;;;0;0;0;6.3587916;10.8577833;0101000020E6100000231C695F2FB725406C51B010676F1940;village;Ntumbo;OSM;Settlement;
290;0;7;2017-03-23 12:36:44.559086+01;;;0;0;0;5.8688241;9.8231446;0101000020E61000000CC2813573A5234013E85D06AD791740;village;Numben;OSM;Settlement;
291;0;7;2017-03-23 12:36:44.559086+01;;;0;0;0;5.8635114;9.9120055;0101000020E6100000548B8862F2D2234088E41A553C741740;village;Nyenjei;OSM;Settlement;
292;0;7;2017-03-23 12:36:44.559086+01;;;0;0;0;6.4258706;10.289134;0101000020E6100000C652245F09942440C44F2D6C17B41940;village;Nyos;OSM;Settlement;
293;0;7;2017-03-23 12:36:44.559086+01;;;0;0;0;6.3936677;10.1516588;0101000020E61000001C4DE438A64D244056F723A01D931940;village;Nzéla;OSM;Settlement;
294;0;7;2017-03-23 12:36:44.559086+01;;;0;0;0;6.2200433;10.0615642;0101000020E61000007435C357851F2440D0D0E40753E11840;village;Obang;OSM;Settlement;
295;0;7;2017-03-23 12:36:44.559086+01;;;0;0;0;5.8951692;9.8560683;0101000020E6100000DE488F954EB62340C28B193CA7941740;village;Ofit;OSM;Settlement;
296;0;7;2017-03-23 12:36:44.559086+01;;;0;0;0;5.9142892;9.686172;0101000020E6100000A0DCB6EF515F23401158946D3BA81740;village;Olorunti;OSM;Settlement;
297;0;7;2017-03-23 12:36:44.559086+01;;;0;0;0;5.8749812;9.9112711;0101000020E61000007494282092D2234097755A12FB7F1740;village;Oshum;OSM;Settlement;
298;0;7;2017-03-23 12:36:44.559086+01;;;0;0;0;6.2705685;10.0289519;0101000020E61000006A508FC8D20E2440A54FABE80F151940;village;Ossyan;OSM;Settlement;
299;0;7;2017-03-23 12:36:44.559086+01;;;0;0;0;5.7866631;10.0654597;0101000020E610000075690DEF8321244042E1FD028B251740;village;Pinyin;OSM;Settlement;
300;0;7;2017-03-23 12:36:44.559086+01;;;0;0;0;6.2755345;10.679479;0101000020E610000038A3E6ABE45B2540C9AD49B7251A1940;village;Rogwa;OSM;Settlement;
301;0;7;2017-03-23 12:36:44.559086+01;;;0;0;0;6.6119023;10.7695995;0101000020E6100000310917F2088A254083633B8496721A40;village;Sa;OSM;Settlement;
302;0;7;2017-03-23 12:36:44.559086+01;;;0;0;0;6.012418;10.3186687;0101000020E61000008684398B28A32440E486DF4DB70C1840;village;Sabga;OSM;Settlement;
303;0;7;2017-03-23 12:36:44.559086+01;;;0;0;0;6.7717215;10.5330361;0101000020E6100000BE2C921BEA102540F27A30293E161B40;village;Sabon-Geda;OSM;Settlement;
304;0;7;2017-03-23 12:36:44.559086+01;;;0;0;0;6.3776337;11.1673167;0101000020E61000003826D588AA5526404B789D68B2821940;village;Sabongari;OSM;Settlement;
305;0;7;2017-03-23 12:36:44.559086+01;;;0;0;0;6.4322505;10.4324131;0101000020E610000055B9F53F65DD2440F6B704E09FBA1940;village;Saf;OSM;Settlement;
306;0;7;2017-03-23 12:36:44.559086+01;;;0;0;0;6.402738;10.9649583;0101000020E6100000EC01A9030FEE2540016DAB59679C1940;village;Sam;OSM;Settlement;
307;0;7;2017-03-23 12:36:44.559086+01;;;0;0;0;6.0467003;10.6428603;0101000020E610000023CB38FC2449254083DA1434D22F1840;village;Shi;OSM;Settlement;
308;0;7;2017-03-23 12:36:44.559086+01;;;0;0;0;6.7951878;10.8544267;0101000020E61000008DA89A6A77B5254077B6ECB5452E1B40;village;Shia;OSM;Settlement;
309;0;7;2017-03-23 12:36:44.559086+01;;;0;0;0;6.4443324;10.8863508;0101000020E61000001F91A5C5CFC5254078369A12FFC61940;village;Sinna;OSM;Settlement;
310;0;7;2017-03-23 12:36:44.559086+01;;;0;0;0;6.4241536;10.9474107;0101000020E6100000CDC2E80313E5254034EC415255B21940;village;Sinyan;OSM;Settlement;
311;0;7;2017-03-23 12:36:44.559086+01;;;0;0;0;6.1367419;10.6367643;0101000020E61000004A8567F805462540BBF89111068C1840;village;Sop;OSM;Settlement;
312;0;7;2017-03-23 12:36:44.559086+01;;;0;0;0;6.5104136;10.3610442;0101000020E61000002BD20EC9DAB8244008BCDDDCA90A1A40;village;Subum;OSM;Settlement;
313;0;7;2017-03-23 12:36:44.559086+01;;;0;0;0;6.8439319;10.018693;0101000020E61000000954FF20920924405F341AAF2F601B40;village;Supong;OSM;Settlement;
314;0;7;2017-03-23 12:36:44.559086+01;;;0;0;0;6.5081491;10.7342966;0101000020E6100000C42055B9F5772540A3F7D73C58081A40;village;Tabenken;OSM;Settlement;
315;0;7;2017-03-23 12:36:44.559086+01;;;0;0;0;6.065295;10.689364;0101000020E610000059147651F4602540895E46B1DC421840;village;Tan;OSM;Settlement;
316;0;7;2017-03-23 12:36:44.559086+01;;;0;0;0;6.2934645;10.6939327;0101000020E6100000FD3F98254B632540E12538F5812C1940;village;Tashibi;OSM;Settlement;
317;0;7;2017-03-23 12:36:44.559086+01;;;0;0;0;5.9422214;9.8166915;0101000020E6100000A5D7666325A22340875DCAAFD5C41740;village;Tezie;OSM;Settlement;
318;0;7;2017-03-23 12:36:44.559086+01;;;0;0;0;5.8625053;9.8053027;0101000020E6100000D1C2AFA2509C2340B581E09634731740;village;Tiben;OSM;Settlement;
319;0;7;2017-03-23 12:36:44.559086+01;;;0;0;0;5.9907988;9.8874255;0101000020E6100000DD4598A25CC6234008AAEBF593F61740;village;Tinaku;OSM;Settlement;
320;0;7;2017-03-23 12:36:44.559086+01;;;0;0;0;5.7726879;10.31324;0101000020E61000001C9947FE60A02440470F327F3B171740;village;Tiogou;OSM;Settlement;
321;0;7;2017-03-23 12:36:44.559086+01;;;0;0;0;6.1407327;10.2701589;0101000020E610000059727044528A24403FE99F3B1C901840;village;Toangu;OSM;Settlement;
322;0;7;2017-03-23 12:36:44.559086+01;;;0;0;0;6.0716325;10.5884568;0101000020E6100000B637AE354A2D2540A852B3075A491840;village;Tohoti;OSM;Settlement;
323;0;7;2017-03-23 12:36:44.559086+01;;;0;0;0;5.9887813;9.9209328;0101000020E61000009EA0038184D72340E195C91583F41740;village;Tonenja;OSM;Settlement;
324;0;7;2017-03-23 12:36:44.559086+01;;;0;0;0;6.4017622;10.9090602;0101000020E6100000C130AA5670D125407813D78C679B1940;village;Tsi;OSM;Settlement;
325;0;7;2017-03-23 12:36:44.559086+01;;;0;0;0;6.48421;10.3530166;0101000020E6100000E6E37F97BEB42440AB9509BFD4EF1940;village;Tsoka;OSM;Settlement;
326;0;7;2017-03-23 12:36:44.559086+01;;;0;0;0;5.9777428;9.9627537;0101000020E6100000BC348F0DEEEC23400E99976835E91740;village;Tudig;OSM;Settlement;
327;0;7;2017-03-23 12:36:44.559086+01;;;0;0;0;6.4955556;10.7046545;0101000020E61000005EF58079C86825400D665DED72FB1940;village;Tum;OSM;Settlement;
328;0;7;2017-03-23 12:36:44.559086+01;;;0;0;0;5.9775256;10.3159377;0101000020E61000009C251296C2A12440D8028C78FCE81740;village;Tungo;OSM;Settlement;
329;0;7;2017-03-23 12:36:44.559086+01;;;0;0;0;6.5787616;10.1193973;0101000020E61000001E7695A4213D2440F8B880E1A6501A40;village;Vamage;OSM;Settlement;
330;0;7;2017-03-23 12:36:44.559086+01;;;0;0;0;6.4582222;10.1240058;0101000020E610000055072FB07D3F244066344D3338D51940;village;Ve;OSM;Settlement;
331;0;7;2017-03-23 12:36:44.559086+01;;;0;0;0;6.0690962;10.6175551;0101000020E6100000BEF49B2E303C25408B1C7D27C1461840;village;Venama;OSM;Settlement;
332;0;7;2017-03-23 12:36:44.559086+01;;;0;0;0;6.6042903;10.1356831;0101000020E6100000633D5A4178452440FD288F13CB6A1A40;village;Veneveme;OSM;Settlement;
333;0;7;2017-03-23 12:36:44.559086+01;;;0;0;0;6.4685856;10.0695691;0101000020E6100000D39FA28F9E23244093814DE7D4DF1940;village;Venewe;OSM;Settlement;
334;0;7;2017-03-23 12:36:44.559086+01;;;0;0;0;6.4716585;10.6733981;0101000020E61000008860C1A2C75825408C852172FAE21940;village;Wannte;OSM;Settlement;
335;0;7;2017-03-23 12:36:44.559086+01;;;0;0;0;6.3162999;11.0581232;0101000020E61000001A47F652C21D26408BE9F81EE4431940;village;Wannti;OSM;Settlement;
336;0;7;2017-03-23 12:36:44.559086+01;;;0;0;0;6.4709206;10.7629133;0101000020E6100000EB5D72929C862540010D800239E21940;village;Warr;OSM;Settlement;
337;0;7;2017-03-23 12:36:44.559086+01;;;0;0;0;6.1645746;10.1166206;0101000020E61000006D14FEB1B53B24405602733E86A81840;village;Wi;OSM;Settlement;
338;0;7;2017-03-23 12:36:44.559086+01;;;0;0;0;5.8220673;9.9547357;0101000020E6100000B8A51F1ED3E82340AF71A202CC491740;village;Wom Guzang;OSM;Settlement;
339;0;7;2017-03-23 12:36:44.559086+01;;;0;0;0;5.7929816;10.0251682;0101000020E610000062CCA7D8E20C2440AB51595E032C1740;village;Wontoko;OSM;Settlement;
340;0;7;2017-03-23 12:36:44.559086+01;;;0;0;0;6.1888898;10.8137794;0101000020E610000027518AB1A7A025402231E6536CC11840;village;Yan;OSM;Settlement;
341;0;7;2017-03-23 12:36:44.559086+01;;;0;0;0;6.268731;10.7095003;0101000020E61000001F01929F436B25407DAF21382E131940;village;Yeh;OSM;Settlement;
342;0;7;2017-03-23 12:36:44.559086+01;;;0;0;0;6.147425;10.6539127;0101000020E6100000CCE039A5CD4E254082734694F6961840;village;Yei;OSM;Settlement;
343;0;7;2017-03-23 12:36:44.559086+01;;;0;0;0;6.9128424;10.8163448;0101000020E6100000F28414F2F7A12540CD9B7928C0A61B40;village;Zabe;OSM;Settlement;
344;0;7;2017-03-23 12:36:44.559086+01;;;0;0;0;5.9449418;9.9150484;0101000020E6100000A683503981D42340557EBED29EC71740;village;Zang Tabi;OSM;Settlement;
345;0;7;2017-03-23 12:36:44.559086+01;;;0;0;0;6.806204;10.7986518;0101000020E610000077C883E3E8982540179E978A8D391B40;village;Zombu;OSM;Settlement;
346;0;7;2017-03-23 12:36:44.559086+01;;;0;0;0;6.5425432;10.1750347;0101000020E61000009154F0259E59244033ABD271902B1A40;village;Mekaf;OSM;Settlement;
347;0;7;2017-03-23 12:36:44.559086+01;;;0;0;0;6.5136963;10.2286021;0101000020E610000006989E550B752440094E2267060E1A40;village;Fungom;OSM;Settlement;
348;0;7;2017-03-23 12:36:44.559086+01;;;0;0;0;6.5313347;10.1691833;0101000020E6100000080F89319F5624407EEB1E3416201A40;village;Zhoa;OSM;Settlement;
349;0;7;2017-03-23 12:36:44.559086+01;;;0;0;0;6.5427478;10.1979407;0101000020E61000003E18C27B586524405FE74B14C62B1A40;village;Yemgeh;OSM;Settlement;
350;0;7;2017-03-23 12:36:44.559086+01;;;0;0;0;6.5555904;10.2723212;0101000020E6100000D40330AF6D8B2440E0E297B0EC381A40;village;Bu;OSM;Settlement;
351;0;7;2017-03-23 12:36:44.559086+01;;;0;0;0;6.5619725;10.2210486;0101000020E610000036A737482D712440650113B8753F1A40;village;Kung;OSM;Settlement;
352;0;7;2017-03-23 12:36:44.559086+01;;;0;0;0;6.194768;10.846173;0101000020E6100000348463963DB12540B43A394371C71840;village;Mbiame;OSM;Settlement;
353;0;7;2017-03-23 12:36:44.559086+01;;;0;0;0;6.850295;10.760438;0101000020E610000074452921588525402DCF83BBB3661B40;village;Ako;OSM;Settlement;
354;0;7;2017-03-23 12:36:44.559086+01;;;0;0;0;6.218136;10.3657259;0101000020E6100000AF99D76C40BB24402F52280B5FDF1840;village;Angin;OSM;Settlement;
355;0;7;2017-03-23 12:36:44.559086+01;;;0;0;0;6.206595;10.376631;0101000020E6100000CE5147C7D5C024408811C2A38DD31840;village;Anyatva;OSM;Settlement;
356;0;7;2017-03-23 12:36:44.559086+01;;;0;0;0;6.14923;10.415282;0101000020E6100000253CA1D79FD424400D54C6BFCF981840;village;Bangolan;OSM;Settlement;
357;0;7;2017-03-23 12:36:44.559086+01;;;0;0;0;6.452301;9.846166;0101000020E61000006AF981AB3CB12340DACA4BFE27CF1940;village;Benade;OSM;Settlement;
358;0;7;2017-03-23 12:36:44.559086+01;;;0;0;0;6.6177439;10.45836;0101000020E6100000D1967329AEEA2440C7365FDB91781A40;village;Bum;OSM;Settlement;
359;0;7;2017-03-23 12:36:44.559086+01;;;0;0;0;6.1827329;10.4062079;0101000020E6100000F1C05B7BFACF2440EB9C55551EBB1840;village;Choupa;OSM;Settlement;
360;0;7;2017-03-23 12:36:44.559086+01;;;0;0;0;6.1574309;10.3670341;0101000020E61000009908C0E4EBBB2440F684DB9035A11840;village;Djichami;OSM;Settlement;
361;0;7;2017-03-23 12:36:44.559086+01;;;0;0;0;6.2805489;10.559151;0101000020E6100000280D350A491E254011B7F935481F1940;village;Djottin;OSM;Settlement;
362;0;7;2017-03-23 12:36:44.559086+01;;;0;0;0;6.532586;10.477031;0101000020E61000003A5B40683DF42440D63A71395E211A40;village;Fonfuka;OSM;Settlement;
363;0;7;2017-03-23 12:36:44.559086+01;;;0;0;0;6.474989;10.799757;0101000020E6100000807EDFBF79992540C7D6338463E61940;village;Fuh;OSM;Settlement;
364;0;7;2017-03-23 12:36:44.559086+01;;;0;0;0;6.9179462;10.1895675;0101000020E6100000DBC4C9FD0E6124402DF3B116FAAB1B40;village;Furu Awa;OSM;Settlement;
365;0;7;2017-03-23 12:36:44.559086+01;;;0;0;0;6.1257349;10.465654;0101000020E6100000D0807A336AEE244003DD4DA6C0801840;village;Ibal;OSM;Settlement;
366;0;7;2017-03-23 12:36:44.559086+01;;;0;0;0;6.386339;10.8012442;0101000020E6100000283806AE3C9A254069AD68739C8B1940;village;Kakar;OSM;Settlement;
367;0;7;2017-03-23 12:36:44.559086+01;;;0;0;0;6.2200701;10.464188;0101000020E61000002C64AE0CAAED24404F4F690E5AE11840;village;Kessoten;OSM;Settlement;
368;0;7;2017-03-23 12:36:44.559086+01;;;0;0;0;6.197315;10.3165121;0101000020E61000009A93BCDF0DA224407C0A80F10CCA1840;village;Kikfuini;OSM;Settlement;
369;0;7;2017-03-23 12:36:44.559086+01;;;0;0;0;6.601474;10.444531;0101000020E6100000C91D369199E32440C493DDCCE8671A40;village;Kimbi;OSM;Settlement;
370;0;7;2017-03-23 12:36:44.559086+01;;;0;0;0;6.1606712;10.9119386;0101000020E610000088EBBD9DE9D22540E5A2B5FD86A41840;village;Kouki;OSM;Settlement;
371;0;7;2017-03-23 12:36:44.559086+01;;;0;0;0;6.3649661;10.6936171;0101000020E61000008AE4D0C7216325403C985EACB9751940;village;Kuvlu;OSM;Settlement;
372;0;7;2017-03-23 12:36:44.559086+01;;;0;0;0;6.279836;10.3256392;0101000020E61000005997642EBAA624404DF910548D1E1940;village;Laitom;OSM;Settlement;
373;0;7;2017-03-23 12:36:44.559086+01;;;0;0;0;6.444924;10.6222129;0101000020E6100000734C71B0923E254070D234289AC71940;village;Lassin;OSM;Settlement;
374;0;7;2017-03-23 12:36:44.559086+01;;;0;0;0;6.4096589;10.7082169;0101000020E6100000F2F2CF679B6A2540B40F689F7DA31940;village;Luh;OSM;Settlement;
375;0;7;2017-03-23 12:36:44.559086+01;;;0;0;0;6.47355;10.8001501;0101000020E610000042C81E46AD9925404D158C4AEAE41940;village;Mbipgo;OSM;Settlement;
376;0;7;2017-03-23 12:36:44.559086+01;;;0;0;0;6.2613813;10.9474268;0101000020E610000037B5222015E52540D4241D8AA70B1940;village;Mbonso;OSM;Settlement;
377;0;7;2017-03-23 12:36:44.559086+01;;;0;0;0;6.2531709;10.579113;0101000020E61000007C60C77F812825400F327F3B3F031940;village;Mbuh;OSM;Settlement;
378;0;7;2017-03-23 12:36:44.559086+01;;;0;0;0;6.207446;10.24114;0101000020E6100000CF83BBB3767B24407BBE66B96CD41840;village;Mbwene;OSM;Settlement;
379;0;7;2017-03-23 12:36:44.559086+01;;;0;0;0;6.223621;10.3498621;0101000020E610000042380B2021B3244096CB46E7FCE41840;village;Mulaon;OSM;Settlement;
380;0;7;2017-03-23 12:36:44.559086+01;;;0;0;0;6.4426911;10.763811;0101000020E61000006EA6423C12872540CBEBD2D050C51940;village;Ngarum;OSM;Settlement;
381;0;7;2017-03-23 12:36:44.559086+01;;;0;0;0;6.3350249;10.716412;0101000020E610000085ECBC8DCD6E2540F76173C410571940;village;Ngodzen;OSM;Settlement;
382;0;7;2017-03-23 12:36:44.559086+01;;;0;0;0;6.228245;10.314959;0101000020E61000006729594E42A12440EFE6A90EB9E91840;village;Njinikom;OSM;Settlement;
383;0;7;2017-03-23 12:36:44.559086+01;;;0;0;0;6.4000667;10.6329326;0101000020E6100000FE24E3BD0F442540E4DFC215AB991940;village;Noni;OSM;Settlement;
384;0;7;2017-03-23 12:36:44.559086+01;;;0;0;0;6.3443048;10.9503401;0101000020E61000009D2743FA92E625405C6CFF6F91601940;village;Nsop;OSM;Settlement;
385;0;7;2017-03-23 12:36:44.559086+01;;;0;0;0;6.5105059;10.883866;0101000020E6100000B91798158AC4254002A9030FC20A1A40;village;Ntamruh;OSM;Settlement;
386;0;7;2017-03-23 12:36:44.559086+01;;;0;0;0;6.4117989;10.711958;0101000020E61000004A404CC2856C2540771D609CAEA51940;village;Ntundip;OSM;Settlement;
387;0;7;2017-03-23 12:36:44.559086+01;;;0;0;0;6.47353;11.061159;0101000020E61000004EB6813B501F264014B35E0CE5E41940;village;Nwa;OSM;Settlement;
388;0;7;2017-03-23 12:36:44.559086+01;;;0;0;0;6.752832;10.735088;0101000020E6100000355D4F745D78254072874D64E6021B40;village;Nzibie;OSM;Settlement;
389;0;7;2017-03-23 12:36:44.559086+01;;;0;0;0;6.236704;10.5999829;0101000020E610000088516BF5303325405C548B8862F21840;village;Tadu;OSM;Settlement;
390;0;7;2017-03-23 12:36:44.559086+01;;;0;0;0;6.2895321;10.7056429;0101000020E6100000284FB4064A6925409D91521A7B281940;village;Takija;OSM;Settlement;
391;0;7;2017-03-23 12:36:44.559086+01;;;0;0;0;6.353755;10.7014162;0101000020E6100000EAC42F0620672540982F2FC03E6A1940;village;Takou;OSM;Settlement;
392;0;7;2017-03-23 12:36:44.559086+01;;;0;0;0;6.4554104;10.1108386;0101000020E6100000D34444D6BF3824407A08991A57D21940;village;Weh;OSM;Settlement;
393;0;7;2017-03-23 12:36:44.559086+01;;;0;0;0;6.507985;11.0654122;0101000020E6100000D28437B57D2126402A6F47382D081A40;village;Yang;OSM;Settlement;
394;0;7;2017-03-23 12:36:44.559086+01;;;0;0;0;5.9532949;10.2754595;0101000020E6100000BABE0F07098D24403DC6CB892CD01740;village;Kemkom;OSM;Settlement;
395;0;7;2017-03-23 12:36:44.559086+01;;;0;0;0;5.86348;9.76844;0101000020E610000061E0B9F7708923401500E31934741740;village;Widekum;OSM;Settlement;
396;0;7;2017-03-23 12:36:44.559086+01;;;0;0;0;6.117767;9.831859;0101000020E61000003BC43F6CE9A923402F3196E997781840;village;Njikwa;OSM;Settlement;
397;0;7;2017-03-23 12:36:44.559086+01;;;0;0;0;6.2336404;10.6740028;0101000020E61000002AD31EE516592540F118D46D3FEF1840;village;Kiyang;OSM;Settlement;
398;0;7;2017-03-23 12:36:44.559086+01;;;0;0;0;6.1867893;10.6805159;0101000020E6100000E6D07D946C5C25408FF8BAB145BF1840;village;Mba;OSM;Settlement;
399;0;7;2017-03-23 12:36:44.559086+01;;;0;0;0;6.1825762;10.6650721;0101000020E6100000CEF68D5484542540A01C6041F5BA1840;village;Melim;OSM;Settlement;
400;0;7;2017-03-23 12:36:44.559086+01;;;0;0;0;6.2083027;10.6579904;0101000020E6100000F629221EE45025408BAC904D4DD51840;village;Meluf;OSM;Settlement;
401;0;7;2017-03-23 12:36:44.559086+01;;;0;0;0;6.2172698;10.6813122;0101000020E61000004CBBE2F3D45C254044A275F97BDE1840;village;Mve;OSM;Settlement;
402;0;7;2017-03-23 12:36:44.559086+01;;;0;0;0;6.1911438;10.6688264;0101000020E61000002067F5697056254029554733BBC31840;village;Njaynui;OSM;Settlement;
403;0;7;2017-03-23 12:36:44.559086+01;;;0;0;0;6.2024701;10.6908751;0101000020E6100000D03D9061BA612540E1AB675254CF1840;village;Nso;OSM;Settlement;
404;0;7;2017-03-23 12:36:44.559086+01;;;0;0;0;6.2317603;10.6865736;0101000020E61000000E982C93865F25406B0B749252ED1840;village;Sanyere;OSM;Settlement;
405;0;7;2017-03-23 12:36:44.559086+01;;;0;0;0;6.1834527;10.6949073;0101000020E6100000DA80BEE3CA6325409C734B06DBBB1840;village;Shishong;OSM;Settlement;
406;0;7;2017-03-23 12:36:44.559086+01;;;0;0;0;6.2230844;10.6591832;0101000020E61000002F25DC7580512540BBFDA83C70E41840;village;Toi;OSM;Settlement;
407;0;7;2017-03-23 12:36:44.559086+01;;;0;0;0;6.1830774;10.6405617;0101000020E6100000EC2301B4F7472540FE8B56A478BB1840;village;Djamie;OSM;Settlement;
408;0;7;2017-03-23 12:36:44.559086+01;;;0;0;0;6.1716317;10.6567235;0101000020E6100000810706103E502540D9D36938C0AF1840;village;KI;OSM;Settlement;
409;0;7;2017-03-23 12:36:44.559086+01;;;0;0;0;6.1997319;10.6357648;0101000020E61000005EE5BFF6824525402CDFE98486CC1840;village;Kai;OSM;Settlement;
410;0;7;2017-03-23 12:36:44.559086+01;;;0;0;0;6.2444716;10.6997185;0101000020E6100000F6CFD3804166254003345BC356FA1840;village;Kikay;OSM;Settlement;
411;0;7;2017-03-23 12:36:44.559086+01;;;0;0;0;6.219416;10.7174086;0101000020E610000001BD152E506F254065E08096AEE01840;village;Kishi;OSM;Settlement;
412;0;7;2017-03-23 12:36:44.559086+01;;;0;0;0;6.2425522;10.7272713;0101000020E610000089A361E75C7425409A4A9A9A5FF81840;village;Kitiwum;OSM;Settlement;
413;0;7;2017-03-23 12:36:44.559086+01;;;0;0;0;6.1881398;10.6396761;0101000020E6100000CF1033A083472540CE4D40B8A7C01840;village;Kokenku;OSM;Settlement;
414;0;7;2017-03-23 12:36:44.559086+01;;;0;0;0;6.1705311;10.6717784;0101000020E61000008451A456F3572540BACD65B49FAE1840;village;Manum;OSM;Settlement;
415;0;7;2017-03-23 12:36:44.559086+01;;;0;0;0;6.1870815;10.7270474;0101000020E61000009E488B8E3F7425401ABFF04A92BF1840;village;Mbuluf;OSM;Settlement;
416;0;7;2017-03-23 12:36:44.559086+01;;;0;0;0;6.1766942;10.6403403;0101000020E6100000259F0DAFDA47254050920953EFB41840;village;Nkarkui;OSM;Settlement;
417;0;7;2017-03-23 12:36:44.559086+01;;;0;0;0;6.1716317;10.6858739;0101000020E6100000265C23DD2A5F2540D9D36938C0AF1840;village;Nseni;OSM;Settlement;
418;0;7;2017-03-23 12:36:44.559086+01;;;0;0;0;6.2499183;10.6915257;0101000020E6100000E0AF13A80F6225400BB03495EAFF1840;village;Ntenla;OSM;Settlement;
419;0;7;2017-03-23 12:36:44.559086+01;;;0;0;0;6.1656153;10.6595279;0101000020E6100000609912A4AD51254071DEA40E97A91840;village;Shangwai;OSM;Settlement;
420;0;7;2017-03-23 12:36:44.559086+01;;;0;0;0;6.3492299;10.7699271;0101000020E6100000B69B85E2338A25403324DD859C651940;village;Tatum;OSM;Settlement;
421;0;7;2017-03-23 12:36:44.559086+01;;;0;0;0;6.539828;10.7699492;0101000020E6100000A82913C8368A254040DCD5ABC8281A40;village;Binka;OSM;Settlement;
422;0;7;2017-03-23 12:36:44.559086+01;;;0;0;0;6.0058673;10.2920591;0101000020E610000096FF35C5889524409A76D61302061840;village;Bambui Marker;OSM;Settlement;
423;0;7;2017-03-23 12:36:44.559086+01;;;0;0;0;6.0093193;10.3059788;0101000020E6100000E589D640A99C2440EEE2A2FF8A091840;locality;Sagba Pass;OSM;Settlement;
424;0;7;2017-03-23 12:36:44.559086+01;;;0;0;0;5.9735678;10.1694713;0101000020E6100000A13836F1C456244032C115F5EEE41740;village;Bayele (Bamenda);OSM;Settlement;
425;0;7;2017-03-23 12:36:44.559086+01;;;0;0;0;6.6063293;10.2730159;0101000020E6100000769373BDC88B2440216D8896E16C1A40;village;Mundabi;OSM;Settlement;
426;0;7;2017-03-23 12:36:44.559086+01;;;0;0;0;6.5952372;10.2240822;0101000020E6100000413BF1E6BA72244050734DDC85611A40;village;Munken;OSM;Settlement;
427;0;7;2017-03-23 12:36:44.559086+01;;;0;0;0;5.950264;10.1524458;0101000020E61000003BD33A600D4E2440BB438A0112CD1740;locality;T-junction (Bamenda);OSM;Settlement;
428;0;7;2017-03-23 12:36:44.559086+01;;;0;0;0;5.9582398;10.160079;0101000020E6100000828DEBDFF5512440FFE66AD03CD51740;locality;Veterinary junction (Bamenda);OSM;Settlement;
429;0;7;2017-03-23 12:36:44.559086+01;;;0;0;0;6.2632498;9.9902112;0101000020E61000000D4460F6FCFA2340D3B6065B910D1940;village;Otang;OSM;Settlement;
430;0;7;2017-03-23 12:36:44.559086+01;;;0;0;0;5.9134422;9.6060611;0101000020E61000006DC1F7A34D3623402A255F645DA71740;village;Mantoh;OSM;Settlement;
431;0;7;2017-03-23 12:36:44.559086+01;;;0;0;0;5.930073;9.6045485;0101000020E610000014B18861873523400892770E65B81740;village;Menda;OSM;Settlement;
432;0;7;2017-03-23 12:36:44.559086+01;;;0;0;0;5.9359687;9.605882;0101000020E61000005B785E2A363623408C5132946EBE1740;village;Anjake;OSM;Settlement;
433;0;7;2017-03-23 12:36:44.559086+01;;;0;0;0;5.990921;10.18537;0101000020E6100000AD510FD1E85E2440B0AD9FFEB3F61740;locality;Mile 4 junction (Bamenda);OSM;Settlement;
434;0;7;2017-03-23 12:36:44.559086+01;;;0;0;0;6.0889929;10.3769187;0101000020E61000006D80E37CFBC02440074E6CF4205B1840;village;Ndawara;OSM;Settlement;
435;0;7;2017-03-23 12:36:44.559086+01;;;0;0;0;6.0086246;10.2607462;0101000020E6100000D01CA38680852440ABC31BE3D4081840;locality;Government school Junction;OSM;Settlement;
436;0;7;2017-03-23 12:36:44.559086+01;;;0;0;0;5.8412466;10.3968686;0101000020E61000005D9E735C32CB24401A7CABBF6F5D1740;locality;Gold bag junction;OSM;Settlement;
437;0;7;2017-03-23 12:36:44.559086+01;;;0;0;0;5.8555845;10.418756;0101000020E6100000EF01BA2F67D62440A9DBD9571E6C1740;locality;Njonoun Bridge;OSM;Settlement;
438;0;7;2017-03-23 12:36:44.559086+01;;;0;0;0;6.0672229;10.4434828;0101000020E610000051AD742D10E324404B2B7414D6441840;locality;Carrefour zefa II;OSM;Settlement;
439;0;7;2017-03-23 12:36:44.559086+01;;;0;0;0;5.8594279;10.4504843;0101000020E610000010B9CFE0A5E6244070140FDE0D701740;locality;Carrefour Njikah;OSM;Settlement;
440;0;7;2017-03-23 12:36:44.559086+01;;;0;0;0;5.9432393;10.439132;0101000020E61000001041D5E8D5E024402E35E785E0C51740;locality;Power Junction;OSM;Settlement;
441;0;7;2017-03-23 12:36:44.559086+01;;;0;0;0;5.9829484;10.3873926;0101000020E6100000C16CA75258C62440429F7E068AEE1740;village;Ngwalang;OSM;Settlement;
442;0;7;2017-03-23 12:36:44.559086+01;;;0;0;0;5.9868209;10.3811439;0101000020E6100000C923134B25C324408209922D81F21740;village;Nsangtah;OSM;Settlement;
443;0;7;2017-03-23 12:36:44.559086+01;;;0;0;0;6.2403016;10.4692118;0101000020E61000006ACB6F873CF02440B5B4649F11F61840;village;Jikijem;OSM;Settlement;
444;0;7;2017-03-23 12:36:44.559086+01;;;0;0;0;5.9932541;10.1618982;0101000020E610000002902452E4522440BE78509A17F91740;village;Ntasen (Bamenda);OSM;Settlement;
445;0;7;2017-03-23 12:36:44.559086+01;;;0;0;0;5.7743651;10.1590926;0101000020E61000003B12D49574512440B3A72E2AF3181740;village;Matazem;OSM;Settlement;
446;0;7;2017-03-23 12:36:44.559086+01;;;0;0;0;6.0907165;10.1139543;0101000020E6100000267ACF37583A244091D442C9E45C1840;village;Bafut;OSM;Settlement;
447;0;7;2017-03-23 12:36:44.559086+01;;;0;0;0;6.2108889;10.6867788;0101000020E6100000192C8B78A15F25408F5B8242F3D71840;city;Kumbo;OSM;Settlement;
448;0;7;2017-03-23 12:36:44.559086+01;;;0;0;0;5.9614117;10.1516505;0101000020E610000017D86322A54D244091F7054F7CD81740;city;Bamenda (unspecified);OSM;Settlement;
449;0;7;2017-03-23 12:36:44.559086+01;;;0;0;0;6.5783833;10.7062394;0101000020E6100000174BEC3598692540D13538B643501A40;town;Nkambe;OSM;Settlement;
450;0;7;2017-03-23 12:36:44.559086+01;;;0;0;0;5.887897;10.011026;0101000020E6100000B7CF2A33A5052440B5DD04DF348D1740;town;Bali;OSM;Settlement;
451;0;7;2017-03-23 12:36:44.559086+01;;;0;0;0;5.7282262;10.8971603;0101000020E6100000028A479858CB2540865C0421B4E91640;town;Foumban;OSM;Settlement;
452;0;7;2017-03-23 12:36:44.559086+01;;;0;0;0;6.3877985;10.0766388;0101000020E6100000993567333D2724405DC0CB0C1B8D1940;town;Wum;OSM;Settlement;
453;0;7;2017-03-23 12:36:44.559086+01;;;0;0;0;9.3070698;13.3934527;0101000020E6100000B90BDEA172C92A40B42DB940389D2240;city;Garoua;OSM;Settlement;
454;0;7;2017-03-23 12:36:44.559086+01;;;0;0;0;5.8066421;8.8539069;0101000020E610000051A8024933B521409B4EFC62003A1740;town;Ekok;OSM;Settlement;
455;0;7;2017-03-23 12:36:44.559086+01;;;0;0;0;4.447115;11.906453;0101000020E6100000E1B88C9B1AD027404434BA83D8C91140;town;Mbandjock;OSM;Settlement;
456;0;7;2017-03-23 12:36:44.559086+01;;;0;0;0;5.139606;10.5235424;0101000020E61000008223DCBF0D0C25402F4D11E0F48E1440;town;Bagangté;OSM;Settlement;
457;0;7;2017-03-23 12:36:44.559086+01;;;0;0;0;4.969409;10.699308;0101000020E61000008FA9BBB20B662540D1CABDC0ACE01340;town;Tonga;OSM;Settlement;
458;0;7;2017-03-23 12:36:44.559086+01;;;0;0;0;6.003224;10.01384;0101000020E6100000D7C0560916072440CD3FFA264D031840;town;Mbengwi;OSM;Settlement;
459;0;7;2017-03-23 12:36:44.559086+01;;;0;0;0;4.720989;9.72244;0101000020E6100000FDA4DAA7E37123405D1ABFF04AE21240;town;Loum;OSM;Settlement;
460;0;7;2017-03-23 12:36:44.559086+01;;;0;0;0;4.750021;9.669115;0101000020E6100000AD86C43D96562340BC40498105001340;town;Tombel;OSM;Settlement;
461;0;7;2017-03-23 12:36:44.559086+01;;;0;0;0;10.608123;13.570404;0101000020E6100000E2033BFE0B242B400DE4D9E55B372540;town;Mogodé;OSM;Settlement;
462;0;7;2017-03-23 12:36:44.559086+01;;;0;0;0;10.536546;14.140218;0101000020E6100000FE9E58A7CA472C4067994528B6122540;town;Gazawa;OSM;Settlement;
463;0;7;2017-03-23 12:36:44.559086+01;;;0;0;0;10.5123086;13.5853261;0101000020E61000008EFDD1DCAF2B2B404AEB14504D062540;town;Roumsiki;OSM;Settlement;
464;0;7;2017-03-23 12:36:44.559086+01;;;0;0;0;11.048338;14.13415;0101000020E61000004D840D4FAF442C40DF4E22C2BF182640;town;Mora;OSM;Settlement;
465;0;7;2017-03-23 12:36:44.559086+01;;;0;0;0;9.5577401;13.7630218;0101000020E610000026451ACBAA862B40E655421C901D2340;town;Boula-Ibi;OSM;Settlement;
466;0;7;2017-03-23 12:36:44.559086+01;;;0;0;0;8.524341;13.5640503;0101000020E610000015996F33CB202B4064E76D6C760C2140;town;Gouna;OSM;Settlement;
467;0;7;2017-03-23 12:36:44.559086+01;;;0;0;0;6.749679;11.80568;0101000020E61000002315C616829C2740F0FD0DDAABFF1A40;town;Banyo;OSM;Settlement;
468;0;7;2017-03-23 12:36:44.559086+01;;;0;0;0;6.5078512;14.0860674;0101000020E6100000E580B806112C2C40FBEF1C250A081A40;town;Bindiba;OSM;Settlement;
469;0;7;2017-03-23 12:36:44.559086+01;;;0;0;0;9.712335;13.550407;0101000020E61000009CFA40F2CE192B40A297512CB76C2340;city;Dembo;OSM;Settlement;
470;0;7;2017-03-23 12:36:44.559086+01;;;0;0;0;10.8467761;15.0566515;0101000020E6100000E789E76C011D2E40A01111A38CB12540;town;Pouss;OSM;Settlement;
471;0;7;2017-03-23 12:36:44.559086+01;;;0;0;0;12.0755638;15.0246194;0101000020E6100000BDB1FBE99A0C2E40E185634CB0262840;city;Kousséri;OSM;Settlement;
472;0;7;2017-03-23 12:36:44.559086+01;;;0;0;0;11.693607;14.643042;0101000020E6100000ABE80FCD3C492D40A88DEA7420632740;town;Zgagué;OSM;Settlement;
473;0;7;2017-03-23 12:36:44.559086+01;;;0;0;0;12.376772;14.224692;0101000020E61000007D586FD40A732C40D7187442E8C02840;town;Fotokol;OSM;Settlement;
474;0;7;2017-03-23 12:36:44.559086+01;;;0;0;0;3.933871;15.1096895;0101000020E6100000DF6DDE3829382E406876DD5B91780F40;town;Gari-Gombo;OSM;Settlement;
475;0;7;2017-03-23 12:36:44.559086+01;;;0;0;0;3.250705;11.886485;0101000020E610000004CAA65CE1C52740A88C7F9F71010A40;town;Zoétélé;OSM;Settlement;
476;0;7;2017-03-23 12:36:44.559086+01;;;0;0;0;2.671533;12.679086;0101000020E6100000C9570229B15B2940687A89B14C5F0540;town;Djoum;OSM;Settlement;
477;0;7;2017-03-23 12:36:44.559086+01;;;0;0;0;3.902763;12.525091;0101000020E61000000ED940BAD80C2940904FC8CEDB380F40;town;Ayos;OSM;Settlement;
478;0;7;2017-03-23 12:36:44.559086+01;;;0;0;0;7.0101226;12.6620956;0101000020E6100000A8A6C931FE5229404DCD2F945D0A1C40;town;Doualayel;OSM;Settlement;
479;0;7;2017-03-23 12:36:44.559086+01;;;0;0;0;7.099532;12.473112;0101000020E6100000B8B06EBC3BF22840349F73B7EB651C40;town;Galim;OSM;Settlement;
480;0;7;2017-03-23 12:36:44.559086+01;;;0;0;0;4.010289;9.207058;0101000020E610000016C09481036A2240C0081A33890A1040;town;Limbé;OSM;Settlement;
481;0;7;2017-03-23 12:36:44.559086+01;;;0;0;0;4.089714;9.316872;0101000020E61000004609FA0B3DA222402FF99FFCDD5B1040;town;Mutengene;OSM;Settlement;
482;0;7;2017-03-23 12:36:44.559086+01;;;0;0;0;4.156819;9.231578;0101000020E610000039F2406491762240D190F12895A01040;city;Buea;OSM;Settlement;
483;0;7;2017-03-23 12:36:44.559086+01;;;0;0;0;4.0822098;9.6649718;0101000020E610000046860B2F775423408FA449CE2E541040;town;Bonaberi;OSM;Settlement;
484;0;7;2017-03-23 12:36:44.559086+01;;;0;0;0;3.7990131;10.1265567;0101000020E6100000EB2D2F0ACC402440C89AECFA60640E40;town;Edéa;OSM;Settlement;
485;0;7;2017-03-23 12:36:44.559086+01;;;0;0;0;2.9434098;9.9126989;0101000020E6100000BB302D454DD32340A5CEED6F1A8C0740;city;Kribi;OSM;Settlement;
486;0;7;2017-03-23 12:36:44.559086+01;;;0;0;0;3.8689867;11.5213344;0101000020E6100000408FAC57EC0A27408E45894CAFF30E40;national_capital;Yaoundé;OSM;Settlement;
487;0;7;2017-03-23 12:36:44.559086+01;;;0;0;0;4.165683;11.534646;0101000020E6100000DBDFD91EBD1127403E03EACDA8A91040;town;Obala;OSM;Settlement;
488;0;7;2017-03-23 12:36:44.559086+01;;;0;0;0;4.884985;10.8095965;0101000020E610000081E9B46E839E254060CD0182398A1340;town;Makenene I;OSM;Settlement;
489;0;7;2017-03-23 12:36:44.559086+01;;;0;0;0;10.1047765;13.3182308;0101000020E6100000EB28BD25EFA22A4058C7F143A5352440;town;Boudjouma;OSM;Settlement;
490;0;7;2017-03-23 12:36:44.559086+01;;;0;0;0;12.370376;14.212872;0101000020E6100000DE770C8FFD6C2C4054724EECA1BD2840;town;Gamboru;OSM;Settlement;
491;0;7;2017-03-23 12:36:44.559086+01;;;0;0;0;9.1116874;12.8850595;0101000020E61000003A07CF8426C5294023C044172F392240;town;Gurin;OSM;Settlement;
492;0;7;2017-03-23 12:36:44.559086+01;;;0;0;0;2.1537363;11.3370815;0101000020E61000005A2C45F295AC264013AAE518DA3A0140;city;Ebebiyín;OSM;Settlement;
493;0;7;2017-03-23 12:36:44.559086+01;;;0;0;0;4.17353;15.0316073;0101000020E610000035A1FFD42E102E40E17F2BD9B1B11040;town;Kentzou;OSM;Settlement;
494;0;7;2017-03-23 12:36:44.559086+01;;;0;0;0;4.4358337;14.3646346;0101000020E6100000E7FAE362B1BA2C408CFA7F304BBE1140;town;Batouri;OSM;Settlement;
495;0;7;2017-03-23 12:36:44.559086+01;;;0;0;0;5.678668;10.204957;0101000020E61000002C2CB81FF0682440EE5D83BEF4B61640;town;Babadjou;OSM;Settlement;
496;0;7;2017-03-23 12:36:44.559086+01;;;0;0;0;4.9525115;9.9391669;0101000020E6100000AEF8E17BDAE023407041B62C5FCF1340;town;Nkongsamba;OSM;Settlement;
497;0;7;2017-03-23 12:36:44.559086+01;;;0;0;0;4.0429674;9.7061981;0101000020E6100000A3FE1FCC92692340362D67A5FF2B1040;city;Douala;OSM;Settlement;
498;0;7;2017-03-23 12:36:44.559086+01;;;0;0;0;4.0314849;9.7057582;0101000020E610000085C48723596923407545DF933D201040;town;New Bell;OSM;Settlement;
499;0;7;2017-03-23 12:36:44.559086+01;;;0;0;0;4.9590975;11.3843139;0101000020E6100000E3CB9FCAC4C4264092B3B0A71DD61340;town;Ngoro;OSM;Settlement;
500;0;7;2017-03-23 12:36:44.559086+01;;;0;0;0;5.510861;10.638147;0101000020E6100000BE141E34BB4625401A355F251F0B1640;town;Foumbot;OSM;Settlement;
501;0;7;2017-03-23 12:36:44.559086+01;;;0;0;0;4.0638116;9.7409587;0101000020E6100000945F50F05E7B2340F76BFCD357411040;town;Makepe;OSM;Settlement;
502;0;7;2017-03-23 12:36:44.559086+01;;;0;0;0;4.0637626;9.7151827;0101000020E61000007854466D2C6E2340EBD4A6FB4A411040;town;Deido;OSM;Settlement;
503;0;7;2017-03-23 12:36:44.559086+01;;;0;0;0;10.196354;14.171901;0101000020E6100000A54C6A6803582C40A8E0F08288642440;town;Moutourwa;OSM;Settlement;
504;0;7;2017-03-23 12:36:44.559086+01;;;0;0;0;10.3436507;14.2358289;0101000020E61000003FE7C990BE782C40B97E0BFCF2AF2440;town;Moussourtouk;OSM;Settlement;
505;0;7;2017-03-23 12:36:44.559086+01;;;0;0;0;10.603266;14.328089;0101000020E6100000CD5A0A48FBA72C40D593F947DF342540;city;Maroua;OSM;Settlement;
506;0;7;2017-03-23 12:36:44.559086+01;;;0;0;0;11.232026;14.1702728;0101000020E6100000F4CB16FF2D572C40B5A4A31CCC762640;town;Limani;OSM;Settlement;
507;0;7;2017-03-23 12:36:44.559086+01;;;0;0;0;2.919441;11.151682;0101000020E6100000A3C85A43A94D2640F2CF0CE2035B0740;city;Ebolowa;OSM;Settlement;
508;0;7;2017-03-23 12:36:44.559086+01;;;0;0;0;5.4469818;10.0532932;0101000020E6100000C9320E3F491B2440FCA0D398B5C91540;town;Dschang;OSM;Settlement;
509;0;7;2017-03-23 12:36:44.559086+01;;;0;0;0;4.2862078;9.4077181;0101000020E61000007AF9426DC0D02240C07053A813251140;town;Muyuka;OSM;Settlement;
510;0;7;2017-03-23 12:36:44.559086+01;;;0;0;0;4.6378368;9.4409446;0101000020E610000013B2987DC3E12240BDBD1017258D1240;city;Kumba;OSM;Settlement;
511;0;7;2017-03-23 12:36:44.559086+01;;;0;0;0;5.7681748;8.9839977;0101000020E6100000AEADE98BCEF7214003722E6A9C121740;town;Eyumodjock;OSM;Settlement;
512;0;7;2017-03-23 12:36:44.559086+01;;;0;0;0;5.894803;14.547135;0101000020E610000072FE261422182D406473D53C47941740;town;Garoua-Boulaï;OSM;Settlement;
513;0;7;2017-03-23 12:36:44.559086+01;;;0;0;0;7.768922;15.347024;0101000020E6100000ADDA3521ADB12E401CB3EC4960131F40;town;Touboro;OSM;Settlement;
514;0;7;2017-03-23 12:36:44.559086+01;;;0;0;0;10.73511;14.609944;0101000020E610000069C878944A382D40D5EC815660782540;city;Bogo;OSM;Settlement;
515;0;7;2017-03-23 12:36:44.559086+01;;;0;0;0;6.4193219;14.2182728;0101000020E61000007336D373C16F2C4080FC5BB862AD1940;town;Meidougou;OSM;Settlement;
516;0;7;2017-03-23 12:36:44.559086+01;;;0;0;0;2.936176;11.975646;0101000020E610000049F25CDF87F327409966BAD7497D0740;city;Sangmélima;OSM;Settlement;
517;0;7;2017-03-23 12:36:44.559086+01;;;0;0;0;5.989248;10.436179;0101000020E61000006A6798DA52DF24409C887E6DFDF41740;town;Ndop;OSM;Settlement;
518;0;7;2017-03-23 12:36:44.559086+01;;;0;0;0;4.024094;11.381448;0101000020E6100000CD3FFA264DC326408A1EF818AC181040;town;Okola;OSM;Settlement;
519;0;7;2017-03-23 12:36:44.559086+01;;;0;0;0;5.334612;10.368438;0101000020E61000001135D1E7A3BC244088653387A4561540;town;Baham;OSM;Settlement;
520;0;7;2017-03-23 12:36:44.559086+01;;;0;0;0;3.7158768;11.6427439;0101000020E610000030687CBA1549274098B89F9D1DBA0D40;town;Mfou;OSM;Settlement;
521;0;7;2017-03-23 12:36:44.559086+01;;;0;0;0;4.499078;9.565699;0101000020E610000083C2A04CA3212340C39CA04D0EFF1140;town;Mbanga;OSM;Settlement;
522;0;7;2017-03-23 12:36:44.559086+01;;;0;0;0;5.4758083;10.4215565;0101000020E61000001BD5E940D6D7244053A97E4A3AE71540;city;Bafoussam;OSM;Settlement;
523;0;7;2017-03-23 12:36:44.559086+01;;;0;0;0;7.9738112;12.2367283;0101000020E61000004A13A5733479284000EA61C32EE51F40;town;Kontcha;OSM;Settlement;
524;0;7;2017-03-23 12:36:44.559086+01;;;0;0;0;6.08446;10.637965;0101000020E61000003BFC3559A3462540D847A7AE7C561840;town;Jakiri;OSM;Settlement;
525;0;7;2017-03-23 12:36:44.559086+01;;;0;0;0;8.403362;14.167409;0101000020E6100000B41CE8A1B6552C40F7E5CC7685CE2040;town;Tcholliré;OSM;Settlement;
526;0;7;2017-03-23 12:36:44.559086+01;;;0;0;0;8.476064;13.240917;0101000020E6100000D2191879597B2A401B9B1DA9BEF32040;town;Poli;OSM;Settlement;
527;0;7;2017-03-23 12:36:44.559086+01;;;0;0;0;10.401436;14.442564;0101000020E61000001EC6A4BF97E22C40C6DFF60489CD2440;town;Mindif;OSM;Settlement;
528;0;7;2017-03-23 12:36:44.559086+01;;;0;0;0;3.978187;11.59313;0101000020E61000008F8D40BCAE2F274094FAB2B453D30F40;town;Soa;OSM;Settlement;
529;0;7;2017-03-23 12:36:44.559086+01;;;0;0;0;6.391392;10.584319;0101000020E6100000E4DC26DC2B2B254004AA7F10C9901940;town;Nkor;OSM;Settlement;
530;0;7;2017-03-23 12:36:44.559086+01;;;0;0;0;10.1177896;14.971149;0101000020E6100000121615713AF12D402B9E1FEB4E3C2440;town;Doukoula;OSM;Settlement;
531;0;7;2017-03-23 12:36:44.559086+01;;;0;0;0;3.501534;11.328169;0101000020E61000003F1F65C405A8264011A8FE4124030C40;town;Akono;OSM;Settlement;
532;0;7;2017-03-23 12:36:44.559086+01;;;0;0;0;2.9331625;11.4003293;0101000020E6100000DA4246F6F7CC26402CD49AE61D770740;town;Néméyong;OSM;Settlement;
533;0;7;2017-03-23 12:36:44.559086+01;;;0;0;0;3.547966;11.027784;0101000020E610000042B456B4390E26403B8F8AFF3B620C40;town;Makak;OSM;Settlement;
534;0;7;2017-03-23 12:36:44.559086+01;;;0;0;0;3.788578;11.402213;0101000020E6100000560DC2DCEECD2640BDC282FB014F0E40;town;Mbankomo;OSM;Settlement;
535;0;7;2017-03-23 12:36:44.559086+01;;;0;0;0;3.287972;10.971611;0101000020E610000022DE3AFF76F12540484F9143C44D0A40;town;Mvengue;OSM;Settlement;
536;0;7;2017-03-23 12:36:44.559086+01;;;0;0;0;3.2436959;11.3964647;0101000020E61000007209D16BFDCA2640B35A05D616F30940;town;Menguémé;OSM;Settlement;
537;0;7;2017-03-23 12:36:44.559086+01;;;0;0;0;9.0243072;13.5096041;0101000020E6100000A6D01ED4EA042B405B1D4AFE710C2240;town;Ngong;OSM;Settlement;
538;0;7;2017-03-23 12:36:44.559086+01;;;0;0;0;10.74103;13.798742;0101000020E61000001EE21FB6F4982B40B3B5BE48687B2540;town;Mokolo;OSM;Settlement;
539;0;7;2017-03-23 12:36:44.559086+01;;;0;0;0;4.096618;11.884756;0101000020E61000002AE109BDFEC42740D9D138D4EF621040;town;Esse;OSM;Settlement;
540;0;7;2017-03-23 12:36:44.559086+01;;;0;0;0;6.5016497;11.5546734;0101000020E610000019ECE126FE1B27405E317E75B0011A40;town;Mayo Darlé;OSM;Settlement;
541;0;7;2017-03-23 12:36:44.559086+01;;;0;0;0;4.84744;9.822983;0101000020E6100000F4531C075EA52340F949B54FC7631340;town;Manjo;OSM;Settlement;
542;0;7;2017-03-23 12:36:44.559086+01;;;0;0;0;7.373248;12.652921;0101000020E610000044BE4BA94B4E29408C3045B9347E1D40;town;Tignère;OSM;Settlement;
543;0;7;2017-03-23 12:36:44.559086+01;;;0;0;0;6.891073;13.049667;0101000020E61000008061F9F36D192A40F964C57075901B40;town;Martap;OSM;Settlement;
544;0;7;2017-03-23 12:36:44.559086+01;;;0;0;0;5.281549;9.976012;0101000020E6100000D20149D8B7F32340D2E28C614E201540;town;Santchou;OSM;Settlement;
545;0;7;2017-03-23 12:36:44.559086+01;;;0;0;0;10.8881645;14.8335238;0101000020E610000013E0AAA1C3AA2D40B7EF517FBDC62540;town;Guirvidig;OSM;Settlement;
546;0;7;2017-03-23 12:36:44.559086+01;;;0;0;0;10.8417087;14.9526084;0101000020E61000002FCAC749BCE72D4071845671F4AE2540;town;Maga;OSM;Settlement;
547;0;7;2017-03-23 12:36:44.559086+01;;;0;0;0;6.468342;13.2693;0101000020E610000027A089B0E1892A40785F950B95DF1940;town;Ngaoundal;OSM;Settlement;
548;0;7;2017-03-23 12:36:44.559086+01;;;0;0;0;10.40821;14.854654;0101000020E61000008ACA863595B52D40E2CCAFE600D12440;town;Moulvoudaye;OSM;Settlement;
549;0;7;2017-03-23 12:36:44.559086+01;;;0;0;0;9.671731;13.373237;0101000020E6100000765089EB18BF2A40336B2920ED572340;town;Baschéo;OSM;Settlement;
550;0;7;2017-03-23 12:36:44.559086+01;;;0;0;0;9.4322641;13.3647742;0101000020E610000060D916AFC3BA2A40417859B851DD2240;town;Gaschiga;OSM;Settlement;
551;0;7;2017-03-23 12:36:44.559086+01;;;0;0;0;4.286683;11.654341;0101000020E610000027DD96C8054F2740D446753A90251140;town;Batchenga;OSM;Settlement;
552;0;7;2017-03-23 12:36:44.559086+01;;;0;0;0;5.121582;9.949155;0101000020E610000075ABE7A4F7E523400C21E7FD7F7C1440;town;Melong;OSM;Settlement;
553;0;7;2017-03-23 12:36:44.559086+01;;;0;0;0;3.77339;12.244917;0101000020E61000000778D2C2657D2840726DA818E72F0E40;town;Akonolinga;OSM;Settlement;
554;0;7;2017-03-23 12:36:44.559086+01;;;0;0;0;3.5656797;13.4059205;0101000020E61000004C8DD0CFD4CF2A40B7161C1483860C40;town;Mindourou I;OSM;Settlement;
555;0;7;2017-03-23 12:36:44.559086+01;;;0;0;0;3.515197;11.503114;0101000020E6100000CA518028980127407FFACF9A1F1F0C40;city;Mbalmayo;OSM;Settlement;
556;0;7;2017-03-23 12:36:44.559086+01;;;0;0;0;3.160148;13.620514;0101000020E6100000986BD102B43D2B409128B4ACFB470940;town;Lomié;OSM;Settlement;
557;0;7;2017-03-23 12:36:44.559086+01;;;0;0;0;3.262634;11.198876;0101000020E610000029EB3713D3652640938AC6DADF190A40;town;Ngomedzap;OSM;Settlement;
558;0;7;2017-03-23 12:36:44.559086+01;;;0;0;0;3.5169119;15.0520657;0101000020E6100000987CFD5AA81A2E40484ECBB4A2220C40;town;Yokadouma;OSM;Settlement;
559;0;7;2017-03-23 12:36:44.559086+01;;;0;0;0;5.3893114;10.331213;0101000020E6100000250516C094A9244004D7CBA5A78E1540;town;Bamendjou;OSM;Settlement;
560;0;7;2017-03-23 12:36:44.559086+01;;;0;0;0;5.468403;10.241384;0101000020E61000002A8E03AF967B2440A6643909A5DF1540;town;Penka-Michel;OSM;Settlement;
561;0;7;2017-03-23 12:36:44.559086+01;;;0;0;0;12.577143;14.45648;0101000020E6100000618E1EBFB7E92C400C3B8C497F272940;town;Makary;OSM;Settlement;
562;0;7;2017-03-23 12:36:44.559086+01;;;0;0;0;3.822117;11.060845;0101000020E610000010406A13271F264093E2E313B2930E40;town;Matomb;OSM;Settlement;
563;0;7;2017-03-23 12:36:44.559086+01;;;0;0;0;5.157671;10.019309;0101000020E6100000740987DEE2092440471CB28174A11440;town;Kékem;OSM;Settlement;
564;0;7;2017-03-23 12:36:44.559086+01;;;0;0;0;4.258913;11.204417;0101000020E61000002C7E5358A968264078094E7D20091140;town;Monatélé;OSM;Settlement;
565;0;7;2017-03-23 12:36:44.559086+01;;;0;0;0;4.3156582;11.2951976;0101000020E610000023B7CB23249726405EDB36E73B431140;town;Néna;OSM;Settlement;
566;0;7;2017-03-23 12:36:44.559086+01;;;0;0;0;5.540481;12.31896;0101000020E6100000DE76A1B94EA328400070ECD973291640;town;Yoko;OSM;Settlement;
567;0;7;2017-03-23 12:36:44.559086+01;;;0;0;0;4.448772;11.625314;0101000020E61000003E761728294027402A711DE38ACB1140;town;Ntui;OSM;Settlement;
568;0;7;2017-03-23 12:36:44.559086+01;;;0;0;0;3.6412971;10.7741991;0101000020E61000006E2F0ED3638C25403A28BC5F60210D40;town;Éséka;OSM;Settlement;
569;0;7;2017-03-23 12:36:44.559086+01;;;0;0;0;3.9896293;13.1738695;0101000020E6100000338B506C05592A40964E35C4C2EA0F40;town;Abong-Mbang;OSM;Settlement;
570;0;7;2017-03-23 12:36:44.559086+01;;;0;0;0;4.2400452;13.4535103;0101000020E61000005DCC858032E82A40433FAE68CEF51040;town;Doumé;OSM;Settlement;
571;0;7;2017-03-23 12:36:44.559086+01;;;0;0;0;5.2650429;10.2288515;0101000020E6100000F54718062C752440E325EE67670F1540;town;Bandja;OSM;Settlement;
572;0;7;2017-03-23 12:36:44.559086+01;;;0;0;0;2.043718;15.216353;0101000020E610000071C806D2C56E2E40E4F8A1D288590040;town;Mouloundou;OSM;Settlement;
573;0;7;2017-03-23 12:36:44.559086+01;;;0;0;0;3.947096;10.837713;0101000020E61000003CDEE4B7E8AC25401C615111A7930F40;town;Ngog-Mapubi;OSM;Settlement;
574;0;7;2017-03-23 12:36:44.559086+01;;;0;0;0;3.9986618;10.7190336;0101000020E61000004673092C25702540AE1DD66542FD0F40;town;Dibang;OSM;Settlement;
575;0;7;2017-03-23 12:36:44.559086+01;;;0;0;0;3.90326;11.884089;0101000020E6100000B6813B50A7C427409947FE60E0390F40;town;Awaé;OSM;Settlement;
576;0;7;2017-03-23 12:36:44.559086+01;;;0;0;0;4.603044;11.256546;0101000020E6100000D8D64FFF598326403332C85D84691240;town;Ombessa;OSM;Settlement;
577;0;7;2017-03-23 12:36:44.559086+01;;;0;0;0;4.460448;9.970938;0101000020E610000026E318C91EF12340D10836AE7FD71140;town;Yabassi;OSM;Settlement;
578;0;7;2017-03-23 12:36:44.559086+01;;;0;0;0;5.374769;10.412204;0101000020E61000008E8F16670CD32440EF37DA71C37F1540;town;Bandjoun;OSM;Settlement;
579;0;7;2017-03-23 12:36:44.559086+01;;;0;0;0;6.413533;9.917302;0101000020E61000005C1C959BA8D523405F44DB3175A71940;town;Benakuma;OSM;Settlement;
580;0;7;2017-03-23 12:36:44.559086+01;;;0;0;0;3.5930785;11.3046972;0101000020E6100000945D7A45019C264096AFCBF09FBE0C40;town;Ngoumou;OSM;Settlement;
581;0;7;2017-03-23 12:36:44.559086+01;;;0;0;0;3.734658;12.827399;0101000020E6100000787C7BD7A0A7294049F59D5F94E00D40;town;Messamena;OSM;Settlement;
582;0;7;2017-03-23 12:36:44.559086+01;;;0;0;0;6.082783;11.487415;0101000020E6100000E12879758EF92640B9A81611C5541840;town;Bankim;OSM;Settlement;
583;0;7;2017-03-23 12:36:44.559086+01;;;0;0;0;6.280281;10.284089;0101000020E6100000834E081D74912440BDC282FB011F1940;town;Fundong;OSM;Settlement;
584;0;7;2017-03-23 12:36:44.559086+01;;;0;0;0;6.4658762;12.625112;0101000020E61000009FAC18AE0E40294064F08BA60EDD1940;town;Tibati;OSM;Settlement;
585;0;7;2017-03-23 12:36:44.559086+01;;;0;0;0;4.075657;12.988555;0101000020E6100000359886E123FA294098DA5207794D1040;town;Angossas;OSM;Settlement;
586;0;7;2017-03-23 12:36:44.559086+01;;;0;0;0;6.5172003;14.2946927;0101000020E610000069BD29F6E1962C40F1EC97F49C111A40;town;Meiganga;OSM;Settlement;
587;0;7;2017-03-23 12:36:44.559086+01;;;0;0;0;4.075435;9.364933;0101000020E61000005C76887FD8BA224021E527D53E4D1040;town;Tiko;OSM;Settlement;
588;0;7;2017-03-23 12:36:44.559086+01;;;0;0;0;4.361105;11.275943;0101000020E6100000C91EA166488D264036B05582C5711140;town;Ebebda;OSM;Settlement;
589;0;7;2017-03-23 12:36:44.559086+01;;;0;0;0;4.361454;11.4399;0101000020E61000005305A3923AE12640960854FF20721140;town;Sa'a;OSM;Settlement;
590;0;7;2017-03-23 12:36:44.559086+01;;;0;0;0;4.011256;10.936749;0101000020E6100000151F9F909DDF2540FD885FB1860B1040;town;Bot-Makak;OSM;Settlement;
591;0;7;2017-03-23 12:36:44.559086+01;;;0;0;0;3.640816;9.794049;0101000020E6100000CFD72C978D9623403E07962364200D40;town;Mouanko;OSM;Settlement;
592;0;7;2017-03-23 12:36:44.559086+01;;;0;0;0;5.018903;10.193375;0101000020E61000005EBA490C02632440662FDB4E5B131440;town;Bakou;OSM;Settlement;
593;0;7;2017-03-23 12:36:44.559086+01;;;0;0;0;2.812894;10.544221;0101000020E6100000C4978922A4162540C0EAC891CE800640;town;Akom II;OSM;Settlement;
594;0;7;2017-03-23 12:36:44.559086+01;;;0;0;0;3.882747;10.849568;0101000020E6100000CD74AF93FAB225400C23BDA8DD0F0F40;town;Boumnyébel;OSM;Settlement;
595;0;7;2017-03-23 12:36:44.559086+01;;;0;0;0;4.340351;13.103861;0101000020E6100000E3A8DC442D352A40C2A4F8F8845C1140;town;Doumaintang;OSM;Settlement;
596;0;7;2017-03-23 12:36:44.559086+01;;;0;0;0;2.372071;10.627143;0101000020E6100000A6D425E318412540F451465C00FA0240;town;Ma'an;OSM;Settlement;
597;0;7;2017-03-23 12:36:44.559086+01;;;0;0;0;9.309488;13.876295;0101000020E6100000F14BFDBCA9C02B4047020D36759E2240;town;Bibemi;OSM;Settlement;
598;0;7;2017-03-23 12:36:44.559086+01;;;0;0;0;4.5948333;10.1553665;0101000020E6100000B8C9A8328C4F24407B4908FB1B611240;town;ndobiang;OSM;Settlement;
599;0;7;2017-03-23 12:36:44.559086+01;;;0;0;0;4.09983;12.537392;0101000020E61000009A43520B2513294083A3E4D539661040;town;Endom;OSM;Settlement;
600;0;7;2017-03-23 12:36:44.559086+01;;;0;0;0;4.866658;12.817684;0101000020E6100000C8EC2C7AA7A229405F44DB3175771340;town;Bibey;OSM;Settlement;
601;0;7;2017-03-23 12:36:44.559086+01;;;0;0;0;4.250214;10.0193608;0101000020E610000017A6A5A8E909244060014C1938001140;town;Diang;OSM;Settlement;
602;0;7;2017-03-23 12:36:44.559086+01;;;0;0;0;4.573797;11.116476;0101000020E6100000AD8905BEA23B2640F12BD670914B1240;town;Bokito;OSM;Settlement;
603;0;7;2017-03-23 12:36:44.559086+01;;;0;0;0;9.08114;12.973747;0101000020E6100000FE277FF78EF229407DCB9C2E8B292240;town;Touroua;OSM;Settlement;
604;0;7;2017-03-23 12:36:44.559086+01;;;0;0;0;9.9329968;13.9439525;0101000020E610000073F4F8BD4DE32B40998BAEC1B1DD2340;town;Guider;OSM;Settlement;
605;0;7;2017-03-23 12:36:44.559086+01;;;0;0;0;10.86905;14.143651;0101000020E61000004D13B69F8C492C40772D211FF4BC2540;town;Tokombéré;OSM;Settlement;
606;0;7;2017-03-23 12:36:44.559086+01;;;0;0;0;2.8493146;11.0897034;0101000020E610000015AEA29AED2D2640611FF87365CB0640;town;Mvila;OSM;Settlement;
607;0;7;2017-03-23 12:36:44.559086+01;;;0;0;0;4.0814832;9.2904632;0101000020E61000000D62B197B794224097B1FC5470531040;town;Ombe;OSM;Settlement;
608;0;7;2017-03-23 12:36:44.559086+01;;;0;0;0;5.7876432;11.4943063;0101000020E6100000DD6921B715FD2640CAAA63F08B261740;town;Ngambé Tikar;OSM;Settlement;
609;0;7;2017-03-23 12:36:44.559086+01;;;0;0;0;3.23471;10.727551;0101000020E61000001D588E9081742540715AF0A2AFE00940;town;Lolodorf;OSM;Settlement;
610;0;7;2017-03-23 12:36:44.559086+01;;;0;0;0;4.3272238;14.8394225;0101000020E6100000990D32C9C8AD2D4031E47DC1134F1140;town;Mbilé;OSM;Settlement;
611;0;7;2017-03-23 12:36:44.559086+01;;;0;0;0;6.3149579;14.7209914;0101000020E6100000FF64E7C825712D40A477E05284421940;town;Gbatoua;OSM;Settlement;
612;0;7;2017-03-23 12:36:44.559086+01;;;0;0;0;7.8587066;13.5937621;0101000020E61000006435029601302B40FA6F6FC8506F1F40;town;Mbé;OSM;Settlement;
613;0;7;2017-03-23 12:36:44.559086+01;;;0;0;0;7.3211994;13.5877155;0101000020E61000005FB4C70BE92C2B40B3FAD97EE8481D40;city;Ngaoundéré;OSM;Settlement;
614;0;7;2017-03-23 12:36:44.559086+01;;;0;0;0;10.344361;15.226549;0101000020E61000000DE2033BFE732E402409C21550B02440;town;Yagoua;OSM;Settlement;
615;0;7;2017-03-23 12:36:44.559086+01;;;0;0;0;4.9203029;13.290971;0101000020E6100000392BA226FA942A40E5A727E263AE1340;town;Bélabo;OSM;Settlement;
616;0;7;2017-03-23 12:36:44.559086+01;;;0;0;0;3.9327713;15.2429961;0101000020E6100000701C1DFC697C2E40E32DA1CC50760F40;town;Déde-Mokouba;OSM;Settlement;
617;0;7;2017-03-23 12:36:44.559086+01;;;0;0;0;4.1199652;15.1362145;0101000020E6100000637B2DE8BD452E40E5A14A28D87A1040;town;Gamboula;OSM;Settlement;
618;0;7;2017-03-23 12:36:44.559086+01;;;0;0;0;3.7702087;15.3297538;0101000020E6100000A576757DD5A82E40E5C1CC2D63290E40;town;Bamba;OSM;Settlement;
619;0;7;2017-03-23 12:36:44.559086+01;;;0;0;0;5.935792;14.6061685;0101000020E610000013BBB6B75B362D40096F0F4240BE1740;town;Beloko;OSM;Settlement;
620;0;7;2017-03-23 12:36:44.559086+01;;;0;0;0;10.2491337;14.1473954;0101000020E61000006429ED68774B2C40B7A9CB738E7F2440;town;Barawa-Laddé;OSM;Settlement;
621;0;7;2017-03-23 12:36:44.559086+01;;;0;0;0;10.2178723;14.1160192;0101000020E61000008A6A5BDE663B2C409A6846F58C6F2440;town;Golom;OSM;Settlement;
622;0;7;2017-03-23 12:36:44.559086+01;;;0;0;0;10.2155618;14.1232524;0101000020E6100000994E46F01A3F2C40A688C21D5E6E2440;town;Ilir;OSM;Settlement;
623;0;7;2017-03-23 12:36:44.559086+01;;;0;0;0;10.3566087;14.1955339;0101000020E6100000C784F3041D642C402BF05F6A95B62440;town;Mudawa;OSM;Settlement;
624;0;7;2017-03-23 12:36:44.559086+01;;;0;0;0;10.3586389;14.1273428;0101000020E61000001BC3521333412C40972595849FB72440;town;Tchofi;OSM;Settlement;
625;0;7;2017-03-23 12:36:44.559086+01;;;0;0;0;10.3353665;14.2904509;0101000020E61000000230F9FAB5942C4014596B28B5AB2440;town;Zouzoui;OSM;Settlement;
626;0;7;2017-03-23 12:36:44.559086+01;;;0;0;0;9.0486614;12.9016053;0101000020E6100000F0CCBA359FCD2940B827A325EA182240;town;Béka;OSM;Settlement;
627;0;7;2017-03-23 12:36:44.559086+01;;;0;0;0;10.2911628;14.38873;0101000020E6100000BBF2599E07C72C40A39F5F4A13952440;town;Bobora;OSM;Settlement;
628;0;7;2017-03-23 12:36:44.559086+01;;;0;0;0;10.2863119;13.9983586;0101000020E6100000565CC1DB28FF2B4047E92D7997922440;town;Dagai;OSM;Settlement;
629;0;7;2017-03-23 12:36:44.559086+01;;;0;0;0;10.3872134;14.1673946;0101000020E6100000D30DB9BEB4552C405C25B3D540C62440;town;Djabakouli;OSM;Settlement;
630;0;7;2017-03-23 12:36:44.559086+01;;;0;0;0;10.3133676;14.3977202;0101000020E6100000CBEA67FBA1CB2C408440D3B771A02440;town;Djombodi;OSM;Settlement;
631;0;7;2017-03-23 12:36:44.559086+01;;;0;0;0;10.3096849;14.2860553;0101000020E6100000E7B11CD775922C404C21EB048F9E2440;town;Foulou;OSM;Settlement;
632;0;7;2017-03-23 12:36:44.559086+01;;;0;0;0;10.415413;14.1025606;0101000020E61000005EB7ADD282342C409FAA4203B1D42440;town;Gawel;OSM;Settlement;
633;0;7;2017-03-23 12:36:44.559086+01;;;0;0;0;10.3691847;14.1958228;0101000020E61000004F9FD3E242642C40FD5DE9C605BD2440;town;Gazad;OSM;Settlement;
634;0;7;2017-03-23 12:36:44.559086+01;;;0;0;0;10.2083072;14.0075534;0101000020E61000007DF20B0ADE032C40EC0AC73DA76A2440;town;Godogul;OSM;Settlement;
635;0;7;2017-03-23 12:36:44.559086+01;;;0;0;0;10.1825397;14.0293092;0101000020E6100000A0F18E9D010F2C407C71F3D7755D2440;town;Gonozo;OSM;Settlement;
636;0;7;2017-03-23 12:36:44.559086+01;;;0;0;0;10.3462611;14.3013702;0101000020E61000005BFAE1314D9A2C4004C1882249B12440;town;Gougoula;OSM;Settlement;
637;0;7;2017-03-23 12:36:44.559086+01;;;0;0;0;10.3021916;14.1122452;0101000020E61000001644EE3378392C4078407EDBB89A2440;town;Houro Djkoa;OSM;Settlement;
638;0;7;2017-03-23 12:36:44.559086+01;;;0;0;0;10.2070904;14.1831554;0101000020E6100000EE2B6A8BC65D2C4091A1BEC0076A2440;town;Laf;OSM;Settlement;
639;0;7;2017-03-23 12:36:44.559086+01;;;0;0;0;10.2579304;14.2179708;0101000020E610000046F762DE996F2C40D44911740F842440;town;Mayel Guinadji;OSM;Settlement;
640;0;7;2017-03-23 12:36:44.559086+01;;;0;0;0;10.3555944;14.0588265;0101000020E6100000BB46CB811E1E2C400F481D7810B62440;town;Mayelngaima;OSM;Settlement;
641;0;7;2017-03-23 12:36:44.559086+01;;;0;0;0;10.3744604;14.3432067;0101000020E61000004289E0C9B8AF2C404E4B0746B9BF2440;town;Metchet;OSM;Settlement;
642;0;7;2017-03-23 12:36:44.559086+01;;;0;0;0;10.3969443;14.2360071;0101000020E6100000633F30ECD5782C40CFAA85483CCB2440;town;Mobono;OSM;Settlement;
643;0;7;2017-03-23 12:36:44.559086+01;;;0;0;0;10.292711;14.1075042;0101000020E6100000835D5ECA0A372C40E25B5837DE952440;town;Mougoudu;OSM;Settlement;
644;0;7;2017-03-23 12:36:44.559086+01;;;0;0;0;10.3053804;14.0333531;0101000020E6100000C07053A813112C40C6ADDDD15A9C2440;town;Mouloum;OSM;Settlement;
645;0;7;2017-03-23 12:36:44.559086+01;;;0;0;0;10.3249507;14.1191325;0101000020E61000000CC85EEFFE3C2C40E79F2AF05FA62440;town;Noubou;OSM;Settlement;
646;0;7;2017-03-23 12:36:44.559086+01;;;0;0;0;10.2760631;14.0956615;0101000020E6100000FDF84B8BFA302C40C7438424588D2440;town;Ouro Dada;OSM;Settlement;
647;0;7;2017-03-23 12:36:44.559086+01;;;0;0;0;10.1759549;14.0579645;0101000020E610000072A8DF85AD1D2C405424BAC2165A2440;town;Titing;OSM;Settlement;
648;0;7;2017-03-23 12:36:44.559086+01;;;0;0;0;10.4280661;14.1386019;0101000020E6100000B15307D4F6462C40730DD87A2BDB2440;town;Wouyang;OSM;Settlement;
649;0;7;2017-03-23 12:36:44.559086+01;;;0;0;0;10.3559242;14.3279107;0101000020E6100000560449E9E3A72C40BEB55DB23BB62440;town;Waza;OSM;Settlement;
650;0;7;2017-03-23 12:36:44.559086+01;;;0;0;0;7.5438894;15.4490931;0101000020E6100000F1B7E287EFE52E407390C657F12C1E40;town;Mbaiboum;OSM;Settlement;
651;0;7;2017-03-23 12:36:44.559086+01;;;0;0;0;5.752774;9.315209;0101000020E61000004ACFF41263A12240CD1DFD2FD7021740;town;Mamfé;OSM;Settlement;
652;0;7;2017-03-23 12:36:44.559086+01;;;0;0;0;10.2852199;14.929658;0101000020E6100000F6ED2422FCDB2D403756BD5708922440;city;Kalfou;OSM;Settlement;
653;0;7;2017-03-23 12:36:44.559086+01;;;0;0;0;9.0574802;13.6653588;0101000020E61000002C369CE8A9542B40C855760B6E1D2240;city;Lagdo;OSM;Settlement;
654;0;7;2017-03-23 12:36:44.559086+01;;;0;0;0;5.627374;10.254744;0101000020E610000057B439CE6D8224405C7171546E821640;town;Mbouda;OSM;Settlement;
655;0;7;2017-03-23 12:36:44.559086+01;;;0;0;0;7.0128473;14.9616746;0101000020E6100000ABC9F89C60EC2D401B5EB5D7270D1C40;town;Yarbang;OSM;Settlement;
656;0;7;2017-03-23 12:36:44.559086+01;;;0;0;0;6.033808;10.579231;0101000020E6100000A4A833F790282540675F79909E221840;town;Babessi;OSM;Settlement;
657;0;7;2017-03-23 12:36:44.559086+01;;;0;0;0;5.158664;10.179748;0101000020E6100000F60A0BEE075C2440CE35CCD078A21440;town;Bafang;OSM;Settlement;
658;0;7;2017-03-23 12:36:44.559086+01;;;0;0;0;4.670181;12.375044;0101000020E61000003F1F65C405C02840319A95ED43AE1240;town;Nanga-Eboko;OSM;Settlement;
659;0;7;2017-03-23 12:36:44.559086+01;;;0;0;0;5.5849915;14.0889788;0101000020E61000001C1318A18E2D2C407FC0030308571640;town;Bétaré-Oya;OSM;Settlement;
660;0;7;2017-03-23 12:36:44.559086+01;;;0;0;0;4.5777265;13.6844409;0101000020E6100000F116A3096F5E2B4053211E89974F1240;city;Bertoua;OSM;Settlement;
661;0;7;2017-03-23 12:36:44.559086+01;;;0;0;0;2.629355;14.024137;0101000020E6100000423F53AF5B0C2C40B7973446EB080540;town;Ngoyla;OSM;Settlement;
662;0;7;2017-03-23 12:36:44.559086+01;;;0;0;0;3.0853971;14.0740621;0101000020E610000005BFB277EB252C40CC62BDACE4AE0840;town;Messock;OSM;Settlement;
663;0;7;2017-03-23 12:36:44.559086+01;;;0;0;0;11.2514;14.1482;0101000020E6100000CE88D2DEE04B2C40C66D3480B7802640;town;Banki;OSM;Settlement;
664;0;7;2017-03-23 12:36:44.559086+01;;;0;0;0;4.7399331;11.2205928;0101000020E610000055771B8AF17026405EE9C605B1F51240;city;Bafia;OSM;Settlement;
665;0;7;2017-03-23 12:36:44.559086+01;;;0;0;0;4.192853;11.749021;0101000020E6100000D10836AE7F7F2740F1BDBF417BC51040;town;Edzendouan;OSM;Settlement;
666;0;7;2017-03-23 12:36:44.559086+01;;;0;0;0;4.681901;11.177507;0101000020E6100000459F8F32E25A26405470784144BA1240;town;Kiiki;OSM;Settlement;
667;0;7;2017-03-23 12:36:44.559086+01;;;0;0;0;4.762081;10.830656;0101000020E6100000CD7344BE4BA92540A69C2FF65E0C1340;town;Ndikiniméki;OSM;Settlement;
668;0;7;2017-03-23 12:36:44.559086+01;;;0;0;0;10.2286055;13.9763215;0101000020E610000069C36169E0F32B40185FB4C70B752440;town;Fiaki;OSM;Settlement;
669;0;7;2017-03-23 12:36:44.559086+01;;;0;0;0;5.487658;9.853472;0101000020E61000007A1A3048FAB42340F487669E5CF31540;town;Fontem;OSM;Settlement;
670;0;7;2017-03-23 12:36:44.559086+01;;;0;0;0;10.1095738;14.446062;0101000020E610000009FA0B3D62E42C4034FF9E0E1A382440;city;Kaele;OSM;Settlement;
671;0;7;2017-03-23 12:36:44.559086+01;;;0;0;0;3.444016;12.446328;0101000020E61000000394861A85E42840B534B742588D0B40;town;Bengbis;OSM;Settlement;
672;0;7;2017-03-23 12:36:44.559086+01;;;0;0;0;9.3861256;13.5011153;0101000020E6100000EB0C422F92002B40F84B3041B2C52240;town;Pitoa;OSM;Settlement;
673;0;7;2017-03-23 12:36:44.559086+01;;;0;0;0;6.00716498136959;10.1314358420879;0101000020E61000004694068F4B432440A3A2C24156071840;in Bamenda;Mankon Market / Mile 8 Park Market (Bamenda);Hanna;Market;
674;0;7;2017-03-23 12:36:44.559086+01;;;0;0;0;5.97579698149108;10.1271518421808;0101000020E6100000E195D70B1A412440A528EC5237E71740;in Bamenda;Nchubuh Market (Bamenda);Hanna;Market;
675;0;7;2017-03-23 12:36:44.559086+01;;;0;0;0;5.96862125553915;10.1433929989352;0101000020E6100000F4CDA1CE6A49244024011B40DEDF1740;in Bamenda;Ntarikon Market (Bamenda);Hanna;Market;
676;0;7;2017-03-23 12:36:44.559086+01;;;0;0;0;5.98032820368784;10.1622383301014;0101000020E6100000F4E203E71053244025BE1828DBEB1740;in Bamenda;Below Foncha Market (Bamenda);Hanna;Market;
677;0;7;2017-03-23 12:36:44.559086+01;;;0;0;0;5.95804398136267;10.1482428408288;0101000020E61000009273527CE64B24404554407B09D51740;in Bamenda;Food Market (Bamenda);Hanna;Market;
678;0;7;2017-03-23 12:36:44.559086+01;;;0;0;0;5.95376747021026;10.1512214256444;0101000020E6100000D4310BE56C4D2440B42A726BA8D01740;in Bamenda;Main Market (Bamenda);Hanna;Market;
679;0;7;2017-03-23 12:36:44.559086+01;;;0;0;0;5.99373798095423;10.1846518388217;0101000020E610000064C591AF8A5E244049F7037396F91740;in Bamenda;Mile 4 Park Market (Bamenda);Hanna;Market;
680;0;7;2017-03-23 12:36:44.559086+01;;;0;0;0;5.96162445045151;10.1688472830451;0101000020E61000000165AD267356244093E47614B4D81740;in Bamenda;Nkwen Market (Bamenda);Hanna;Market;
681;0;7;2017-03-23 12:36:44.559086+01;;;0;0;0;5.96131987944277;10.167552856258;0101000020E610000068F5EB7CC95524402CCE0C3D64D81740;in Bamenda;Mobil (Bamenda);Hanna;unspecified;
682;0;7;2017-03-23 12:36:44.559086+01;;;0;0;0;6.01214198050926;10.2300248361548;0101000020E6100000001BB9D0C5752440A8C884F26E0C1840;in Bamenda;Bambui old Market (Bamenda);Hanna;Market;
683;0;7;2017-03-23 12:36:44.559086+01;;;0;0;0;6.01279237992091;10.2299708773629;0101000020E6100000C59C2ABEBE752440DC971572190D1840;in Bamenda;Bambui new Market (Bamenda);Hanna;Market;
